id,com_auto,provincia,cod_mun,nombre,altitud,latitud,longitud,num_hab,zona_comarcal,destacada,url
01001,16,1,1,Alegría-Dulantzi,568,42.83981158,-2.51243731,2925,750102,True,alegria-dulantzi-id01001
01002,16,1,2,Amurrio,219,43.05427776,-3.00007326,10239,750101,True,amurrio-id01002
01003,16,1,3,Aramaio,333,43.05119653,-2.56540037,1478,750101,True,aramaio-ibarra-id01003
01004,16,1,4,Artziniega,210,43.12084358,-3.12791718,1818,750101,True,artziniega-id01004
01006,16,1,6,Armiñón,467,42.72326199,-2.87183475,250,750102,False,arminon-id01006
01008,16,1,8,Arratzua-Ubarrundia,528,42.89116171,-2.63878816,994,750102,False,arratzua-ubarrundia-durana-id01008
01009,16,1,9,Asparrena,602,42.88968768,-2.31670754,1652,750102,True,asparrena-araia-id01009
01010,16,1,10,Ayala/Aiara,306,43.07768283,-3.04306746,2929,750101,True,ayala-aiara-arespalditza-respaldiza-id01010
01011,16,1,11,Baños de Ebro/Mañueta,421,42.52925602,-2.67863583,325,750103,False,banos-de-ebro-manueta-id01011
01013,16,1,13,Barrundia,575,42.91537538,-2.49407452,915,750102,False,barrundia-ozaeta-id01013
01014,16,1,14,Berantevilla,471,42.68227191,-2.85971414,477,750102,False,berantevilla-id01014
01016,16,1,16,Bernedo,710,42.62676989,-2.49825439,545,750102,False,bernedo-id01016
01017,16,1,17,Campezo/Kanpezu,578,42.66971209,-2.35207693,1084,750102,True,campezo-kanpezu-santa-cruz-de-campezo-santikurutze-kanpezu-id01017
01018,16,1,18,Zigoitia,585,42.96210609,-2.73033002,1743,750101,True,zigoitia-gopegi-id01018
01019,16,1,19,Kripan,691,42.59082439,-2.51621636,188,750103,False,kripan-id01019
01020,16,1,20,Kuartango,594,42.87006411,-2.88438243,356,750102,False,kuartango-zuhatzu-kuartango-id01020
01021,16,1,21,Elburgo/Burgelu,547,42.84940575,-2.54601815,624,750102,False,elburgo-burgelu-id01021
01022,16,1,22,Elciego,451,42.51420738,-2.61723872,1054,750103,False,elciego-id01022
01023,16,1,23,Elvillar/Bilar,581,42.56842577,-2.54441267,351,750103,False,elvillar-bilar-id01023
01027,16,1,27,Iruraiz-Gauna,634,42.83108571,-2.47396549,511,750102,False,iruraiz-gauna-azilu-id01027
01028,16,1,28,Labastida/Bastida,554,42.59076105,-2.79288705,1489,750103,True,labastida-bastida-id01028
01030,16,1,30,Lagrán,751,42.62621464,-2.58423377,161,750103,False,lagran-id01030
01031,16,1,31,Laguardia,630,42.55236655,-2.58411693,1518,750103,True,laguardia-laguardia-biasteri-id01031
01032,16,1,32,Lanciego/Lantziego,542,42.5624416,-2.51278162,681,750103,False,lanciego-lantziego-id01032
01033,16,1,33,Lapuebla de Labarca,431,42.49441468,-2.57209001,861,750103,False,lapuebla-de-labarca-puebla-de-labarca-la-lapuebla-labarka-id01033
01034,16,1,34,Leza,569,42.56469687,-2.63459428,207,750103,False,leza-id01034
01036,16,1,36,Laudio/Llodio,123,43.1425188,-2.96256495,18428,750101,True,laudio-llodio-id01036
01037,16,1,37,Arraia-Maeztu,658,42.74000217,-2.44663872,714,750102,False,arraia-maeztu-maeztu-maestu-id01037
01039,16,1,39,Moreda de Álava/Moreda Araba,461,42.52479167,-2.40841718,236,750103,False,moreda-de-alava-moreda-araba-id01039
01041,16,1,41,Navaridas,535,42.5450594,-2.62479544,214,750103,False,navaridas-id01041
01042,16,1,42,Okondo,277,43.1702598,-2.99453469,1158,750101,True,okondo-eskauriatza-id01042
01043,16,1,43,Oyón-Oion,433,42.50626162,-2.43775585,3298,750103,True,oyon-oion-id01043
01044,16,1,44,Peñacerrada-Urizaharra,752,42.64417512,-2.71402821,269,750103,False,penacerrada-urizaharra-id01044
01046,16,1,46,Erriberagoitia/Ribera Alta,545,42.80074682,-2.91080642,751,750102,False,erriberagoitia-ribera-alta-pobes-id01046
01047,16,1,47,Ribera Baja/Erribera Beitia,483,42.71339792,-2.91704002,1358,750102,True,ribera-baja-erribera-beitia-rivabellosa-id01047
01049,16,1,49,Añana,574,42.8012318,-2.98601634,165,750102,False,anana-salinas-de-anana-gesaltza-anana-id01049
01051,16,1,51,Salvatierra/Agurain,605,42.85002265,-2.38874391,4952,750102,True,salvatierra-agurain-id01051
01052,16,1,52,Samaniego,571,42.56735197,-2.67904862,290,750103,False,samaniego-id01052
01053,16,1,53,San Millán/Donemiliaga,600,42.87382571,-2.37748902,726,750102,False,san-millan-donemiliaga-ordonana-erdonana-id01053
01054,16,1,54,Urkabustaiz,633,42.95304046,-2.90661046,1278,750101,True,urkabustaiz-izarra-id01054
01055,16,1,55,Valdegovía/Gaubea,552,42.84756896,-3.09884417,1038,750102,False,valdegovia-gaubea-villanueva-de-valdegovia-id01055
01056,16,1,56,Harana/Valle de Arana,812,42.75289194,-2.33104687,259,750102,False,harana-valle-de-arana-alda-id01056
01057,16,1,57,Villabuena de Álava/Eskuernaga,483,42.54857804,-2.66452938,312,750103,False,villabuena-de-alava-eskuernaga-id01057
01058,16,1,58,Legutio,570,42.9798744,-2.64255929,1703,750101,True,legutio-id01058
01059,16,1,59,Vitoria-Gasteiz,539,42.85058789,-2.67275685,242082,750102,True,vitoria-gasteiz-id01059
01060,16,1,60,Yécora/Iekora,694,42.56923117,-2.4700849,258,750103,False,yecora-iekora-id01060
01061,16,1,61,Zalduondo,612,42.88580971,-2.34650825,185,750102,False,zalduondo-id01061
01062,16,1,62,Zambrana,458,42.66112968,-2.87806502,417,750102,False,zambrana-id01062
01063,16,1,63,Zuia,617,42.95597763,-2.81862854,2427,750101,True,zuia-murgia-id01063
01901,16,1,901,Iruña Oka/Iruña de Oca,502,42.81819126,-2.8147543,3108,750102,True,iruna-oka-iruna-de-oca-nanclares-de-la-oca-langraiz-oka-id01901
01902,16,1,902,Lantarón,482,42.71657557,-2.96649719,931,750102,False,lantaron-comunion-komunioi-id01902
02001,8,2,1,Abengibre,634,39.2100078,-1.54384487,775,680201,False,abengibre-id02001
02002,8,2,2,Alatoz,858,39.09494843,-1.36097604,580,680201,False,alatoz-id02002
02003,8,2,3,Albacete,681,38.99588053,-1.85574745,172487,680201,True,albacete-id02003
02004,8,2,4,Albatana,582,38.5708754,-1.52275248,748,680203,False,albatana-id02004
02005,8,2,5,Alborea,706,39.27835442,-1.39670449,778,680201,False,alborea-id02005
02006,8,2,6,Alcadozo,925,38.6489758,-1.9802275,684,680202,False,alcadozo-id02006
02007,8,2,7,Alcalá del Júcar,547,39.1932018,-1.42932697,1307,680201,False,alcala-del-jucar-id02007
02008,8,2,8,Alcaraz,953,38.66425104,-2.49034957,1533,680202,False,alcaraz-id02008
02009,8,2,9,Almansa,687,38.86968811,-1.09414681,25024,680203,True,almansa-id02009
02010,8,2,10,Alpera,852,38.95969094,-1.23080245,2358,680203,False,alpera-id02010
02011,8,2,11,Ayna,696,38.55217746,-2.07053831,719,680202,False,ayna-id02011
02012,8,2,12,Balazote,771,38.88396156,-2.15096732,2417,680201,False,balazote-id02012
02013,8,2,13,Balsa de Ves,751,39.26461253,-1.19650012,176,680201,False,balsa-de-ves-id02013
02014,8,2,14,"Ballestero, El",1027,38.84252196,-2.45508633,459,680201,False,ballestero-el-id02014
02015,8,2,15,Barrax,733,39.0456106,-2.20045637,1920,680201,False,barrax-id02015
02016,8,2,16,Bienservida,898,38.51602097,-2.61184243,668,680202,False,bienservida-id02016
02017,8,2,17,Bogarra,844,38.58025427,-2.21253636,955,680202,False,bogarra-id02017
02018,8,2,18,Bonete,886,38.86950589,-1.34830324,1157,680203,False,bonete-id02018
02019,8,2,19,"Bonillo, El",1062,38.95012362,-2.54023691,2956,680201,True,bonillo-el-id02019
02020,8,2,20,Carcelén,911,39.10231176,-1.30876708,573,680201,False,carcelen-id02020
02021,8,2,21,Casas de Juan Núñez,704,39.10160749,-1.55799035,1372,680201,False,casas-de-juan-nunez-id02021
02022,8,2,22,Casas de Lázaro,942,38.7705758,-2.23922378,386,680201,False,casas-de-lazaro-id02022
02023,8,2,23,Casas de Ves,707,39.25946122,-1.33454992,689,680201,False,casas-de-ves-id02023
02024,8,2,24,Casas-Ibáñez,708,39.28701686,-1.47129143,4713,680201,True,casas-ibanez-id02024
02025,8,2,25,Caudete,554,38.70573009,-0.9886912,10294,680203,True,caudete-id02025
02026,8,2,26,Cenizate,706,39.30332101,-1.66113349,1176,680201,False,cenizate-id02026
02027,8,2,27,Corral-Rubio,870,38.83500072,-1.4608525,365,680203,False,corral-rubio-id02027
02028,8,2,28,Cotillas,947,38.43135915,-2.50574545,139,680202,False,cotillas-id02028
02029,8,2,29,Chinchilla de Monte-Aragón,907,38.9210968,-1.72602643,4099,680201,True,chinchilla-de-monte-aragon-id02029
02030,8,2,30,Elche de la Sierra,630,38.44790893,-2.04781376,3814,680202,True,elche-de-la-sierra-id02030
02031,8,2,31,Férez,682,38.35567013,-2.00953934,719,680202,False,ferez-id02031
02032,8,2,32,Fuensanta,693,39.24466001,-2.06725219,345,680201,False,fuensanta-id02032
02033,8,2,33,Fuente-Álamo,820,38.69314229,-1.43170411,2652,680203,True,fuente-alamo-id02033
02034,8,2,34,Fuentealbilla,670,39.26773579,-1.54879364,1931,680201,False,fuentealbilla-id02034
02035,8,2,35,"Gineta, La",691,39.11387916,-1.99784496,2485,680201,True,gineta-la-id02035
02036,8,2,36,Golosalvo,740,39.23996013,-1.63626863,122,680201,False,golosalvo-id02036
02037,8,2,37,Hellín,570,38.51218953,-1.70344921,30862,680203,True,hellin-id02037
02038,8,2,38,"Herrera, La",714,38.9621774,-2.12637236,349,680201,False,herrera-la-id02038
02039,8,2,39,Higueruela,1041,38.96455026,-1.44535609,1273,680203,False,higueruela-id02039
02040,8,2,40,Hoya-Gonzalo,929,38.95787352,-1.55687053,694,680201,False,hoya-gonzalo-id02040
02041,8,2,41,Jorquera,624,39.17457441,-1.52061391,408,680201,False,jorquera-id02041
02042,8,2,42,Letur,735,38.36632081,-2.10096881,1018,680202,False,letur-id02042
02043,8,2,43,Lezuza,913,38.94878996,-2.35387427,1504,680201,False,lezuza-id02043
02044,8,2,44,Liétor,641,38.54083745,-1.95479319,1336,680202,False,lietor-id02044
02045,8,2,45,Madrigueras,688,39.23680339,-1.7997012,4739,680201,True,madrigueras-id02045
02046,8,2,46,Mahora,663,39.21303088,-1.72481837,1430,680201,False,mahora-id02046
02047,8,2,47,Masegoso,1108,38.71877813,-2.31511768,121,680202,False,masegoso-id02047
02048,8,2,48,Minaya,723,39.27118701,-2.31961973,1571,680201,False,minaya-id02048
02049,8,2,49,Molinicos,851,38.46778179,-2.23898151,931,680202,False,molinicos-id02049
02050,8,2,50,Montalvos,709,39.16721439,-2.02769341,110,680201,False,montalvos-id02050
02051,8,2,51,Montealegre del Castillo,810,38.78717469,-1.32487672,2162,680203,False,montealegre-del-castillo-id02051
02052,8,2,52,Motilleja,676,39.17948885,-1.79025762,563,680201,False,motilleja-id02052
02053,8,2,53,Munera,929,39.03954575,-2.4830388,3678,680201,True,munera-id02053
02054,8,2,54,Navas de Jorquera,708,39.28099513,-1.7189485,520,680201,False,navas-de-jorquera-id02054
02055,8,2,55,Nerpio,1085,38.14824043,-2.30224029,1384,680202,False,nerpio-id02055
02056,8,2,56,Ontur,653,38.61472661,-1.49888166,2169,680203,False,ontur-id02056
02057,8,2,57,Ossa de Montiel,898,38.96201035,-2.74272664,2530,680201,True,ossa-de-montiel-id02057
02058,8,2,58,Paterna del Madera,1126,38.59729435,-2.34555766,385,680202,False,paterna-del-madera-id02058
02059,8,2,59,Peñascosa,1169,38.67153536,-2.41040499,366,680202,False,penascosa-id02059
02060,8,2,60,Peñas de San Pedro,1010,38.72688881,-2.00212787,1405,680202,False,penas-de-san-pedro-id02060
02061,8,2,61,Pétrola,870,38.82629814,-1.55549981,744,680203,False,petrola-id02061
02062,8,2,62,Povedilla,872,38.70163971,-2.60393627,484,680202,False,povedilla-id02062
02063,8,2,63,Pozohondo,871,38.721122,-1.91133356,1723,680203,False,pozohondo-id02063
02064,8,2,64,Pozo-Lorente,769,39.07663024,-1.50647855,420,680201,False,pozo-lorente-id02064
02065,8,2,65,Pozuelo,845,38.80969625,-2.10117384,534,680201,False,pozuelo-id02065
02066,8,2,66,"Recueja, La",542,39.17688319,-1.48988779,278,680201,False,recueja-la-id02066
02067,8,2,67,Riópar,1126,38.4998099,-2.41839311,1477,680202,False,riopar-id02067
02068,8,2,68,Robledo,1041,38.75778452,-2.44882682,422,680201,False,robledo-id02068
02069,8,2,69,"Roda, La",708,39.20706504,-2.15924796,15979,680201,True,roda-la-id02069
02070,8,2,70,Salobre,920,38.59195258,-2.55057256,561,680202,False,salobre-id02070
02071,8,2,71,San Pedro,844,38.82654004,-2.186211,1226,680201,False,san-pedro-id02071
02072,8,2,72,Socovos,734,38.33202632,-1.98469065,1881,680202,False,socovos-id02072
02073,8,2,73,Tarazona de la Mancha,713,39.26539647,-1.91280979,6550,680201,True,tarazona-de-la-mancha-id02073
02074,8,2,74,Tobarra,652,38.5922733,-1.69282296,8075,680203,True,tobarra-id02074
02075,8,2,75,Valdeganga,667,39.13545152,-1.67646922,1928,680201,False,valdeganga-id02075
02076,8,2,76,Vianos,1118,38.632307,-2.50149079,389,680202,False,vianos-id02076
02077,8,2,77,Villa de Ves,744,39.22231541,-1.25897631,54,680201,False,villa-de-ves-id02077
02078,8,2,78,Villalgordo del Júcar,683,39.29598679,-2.06309183,1157,680201,False,villalgordo-del-jucar-id02078
02079,8,2,79,Villamalea,739,39.36160785,-1.59908353,4148,680201,True,villamalea-id02079
02080,8,2,80,Villapalacios,837,38.57467359,-2.63505947,624,680202,False,villapalacios-id02080
02081,8,2,81,Villarrobledo,728,39.26755792,-2.60714311,26419,680201,True,villarrobledo-id02081
02082,8,2,82,Villatoya,409,39.33385264,-1.33858599,112,680201,False,villatoya-id02082
02083,8,2,83,Villavaliente,726,39.12645758,-1.45799642,249,680201,False,villavaliente-id02083
02084,8,2,84,Villaverde de Guadalimar,789,38.45619162,-2.5176095,381,680202,False,villaverde-de-guadalimar-id02084
02085,8,2,85,Viveros,1012,38.77363475,-2.57590915,310,680201,False,viveros-id02085
02086,8,2,86,Yeste,878,38.36643865,-2.31903072,2964,680202,True,yeste-id02086
02901,8,2,901,Pozo Cañada,830,38.801361,-1.73622317,2815,680201,True,pozo-canada-id02901
03001,10,3,1,"Atzúbia, l'",99,38.84743029,-0.15173035,627,770301,False,atzubia-l-id03001
03002,10,3,2,Agost,331,38.43949316,-0.63891979,4752,770303,False,agost-id03002
03003,10,3,3,Agres,719,38.78000404,-0.51595543,583,770301,False,agres-id03003
03004,10,3,4,Aigües,332,38.49887092,-0.36258669,984,770303,False,aigues-id03004
03005,10,3,5,Albatera,15,38.17894636,-0.86792141,11767,770303,False,albatera-id03005
03006,10,3,6,Alcalalí,226,38.74965349,-0.04160798,1350,770301,False,alcalali-id03006
03007,10,3,7,Alcocer de Planes,345,38.79447224,-0.40197036,238,770301,False,alcocer-de-planes-id03007
03008,10,3,8,Alcoleja,735,38.67548564,-0.33100925,191,770301,False,alcoleja-id03008
03009,10,3,9,Alcoy/Alcoi,561,38.69836894,-0.47318376,59675,770302,True,alcoy-alcoi-id03009
03010,10,3,10,Alfafara,580,38.77274828,-0.55552339,418,770301,False,alfafara-id03010
03011,10,3,11,"Alfàs del Pi, l'",89,38.58009496,-0.1026002,21357,770303,False,alfas-del-pi-l-id03011
03012,10,3,12,Algorfa,23,38.08681637,-0.79568423,3799,770303,False,algorfa-id03012
03013,10,3,13,Algueña,530,38.33800138,-1.00303745,1457,770302,False,alguena-id03013
03014,10,3,14,Alicante/Alacant,5,38.34548705,-0.4831832,332067,770303,True,alacant-alicante-id03014
03015,10,3,15,Almoradí,10,38.10977991,-0.79201713,19992,770303,False,almoradi-id03015
03016,10,3,16,Almudaina,570,38.76155764,-0.35370678,112,770301,False,almudaina-id03016
03017,10,3,17,"Alqueria d'Asnar, l'",363,38.77311802,-0.42552267,527,770301,False,alqueria-d-asnar-l-id03017
03018,10,3,18,Altea,60,38.59892497,-0.05144236,22518,770301,False,altea-id03018
03019,10,3,19,Aspe,234,38.34577266,-0.76849107,20248,770303,False,aspe-id03019
03020,10,3,20,Balones,670,38.73701039,-0.34237388,139,770301,False,balones-id03020
03021,10,3,21,Banyeres de Mariola,812,38.71635902,-0.65685684,7174,770302,False,banyeres-de-mariola-id03021
03022,10,3,22,Benasau,705,38.68991329,-0.34261264,158,770301,False,benasau-id03022
03023,10,3,23,Beneixama,592,38.70018533,-0.76676743,1738,770302,False,beneixama-id03023
03024,10,3,24,Benejúzar,23,38.07806375,-0.83819517,5394,770303,False,benejuzar-id03024
03025,10,3,25,Benferri,56,38.14179352,-0.9622579,1910,770303,False,benferri-id03025
03026,10,3,26,Beniarbeig,42,38.82193219,-0.00130364,1859,770301,False,beniarbeig-id03026
03027,10,3,27,Beniardá,464,38.68343356,-0.21600764,208,770301,False,beniarda-id03027
03028,10,3,28,Beniarrés,385,38.82007885,-0.37904234,1254,770301,False,beniarres-id03028
03029,10,3,29,Benigembla,311,38.75633514,-0.10982699,508,770301,False,benigembla-id03029
03030,10,3,30,Benidoleig,124,38.791917,-0.03173239,1189,770301,False,benidoleig-id03030
03031,10,3,31,Benidorm,11,38.53427136,-0.1306853,69010,770303,True,benidorm-id03031
03032,10,3,32,Benifallim,738,38.66273419,-0.39922559,121,770302,False,benifallim-id03032
03033,10,3,33,Benifato,663,38.67369418,-0.22888967,168,770301,False,benifato-id03033
03034,10,3,34,Benijófar,22,38.0808408,-0.73828051,3791,770303,False,benijofar-id03034
03035,10,3,35,Benilloba,521,38.69955909,-0.3908201,789,770301,False,benilloba-id03035
03036,10,3,36,Benillup,564,38.75380301,-0.3789958,104,770301,False,benillup-id03036
03037,10,3,37,Benimantell,546,38.67659254,-0.20984798,499,770301,False,benimantell-id03037
03038,10,3,38,Benimarfull,414,38.77584801,-0.39099875,431,770301,False,benimarfull-id03038
03039,10,3,39,Benimassot,725,38.74905825,-0.291855,113,770301,False,benimassot-id03039
03040,10,3,40,Benimeli,93,38.82296616,-0.04146491,419,770301,False,benimeli-id03040
03041,10,3,41,Benissa,254,38.7151969,0.05043358,11572,770301,False,benissa-id03041
03042,10,3,42,"Benitachell/Poble Nou de Benitatxell, el",163,38.73292416,0.14459559,4659,770301,False,benitachell-poble-nou-de-benitatxell-el-id03042
03043,10,3,43,Biar,697,38.62996229,-0.76597374,3670,770302,False,biar-id03043
03044,10,3,44,Bigastro,23,38.06301558,-0.89528476,6762,770303,False,bigastro-id03044
03045,10,3,45,Bolulla,213,38.67657681,-0.11168494,421,770301,False,bolulla-id03045
03046,10,3,46,Busot,312,38.4819618,-0.42050568,3138,770303,False,busot-id03046
03047,10,3,47,Calp,55,38.64526261,0.04453809,22437,770301,False,calp-id03047
03048,10,3,48,Callosa d'en Sarrià,250,38.65164066,-0.12235041,7370,770301,False,callosa-d-en-sarria-id03048
03049,10,3,49,Callosa de Segura,20,38.12258136,-0.87933854,18079,770303,False,callosa-de-segura-id03049
03050,10,3,50,"Campello, el",26,38.42754724,-0.40086509,27081,770303,True,campello-el-id03050
03051,10,3,51,"Campo de Mirra/Camp de Mirra, el",585,38.68719624,-0.77925393,437,770302,False,campo-de-mirra-camp-de-mirra-el-id03051
03052,10,3,52,Cañada,556,38.67518917,-0.80952172,1242,770302,False,canada-id03052
03053,10,3,53,Castalla,669,38.59657643,-0.67026538,10143,770302,False,castalla-id03053
03054,10,3,54,Castell de Castells,549,38.72499704,-0.19391054,442,770301,False,castell-de-castells-id03054
03055,10,3,55,Catral,8,38.15964959,-0.80464175,8663,770303,False,catral-id03055
03056,10,3,56,Cocentaina,433,38.74541202,-0.44022067,11519,770301,False,cocentaina-id03056
03057,10,3,57,Confrides,780,38.68353731,-0.26810894,232,770301,False,confrides-id03057
03058,10,3,58,Cox,16,38.13972138,-0.88437585,7188,770303,False,cox-id03058
03059,10,3,59,Crevillent,129,38.24881414,-0.80855322,28328,770303,True,crevillent-id03059
03060,10,3,60,Quatretondeta,620,38.72386675,-0.31641906,115,770301,False,quatretondeta-id03060
03061,10,3,61,Daya Nueva,8,38.11371672,-0.76103525,1765,770303,False,daya-nueva-id03061
03062,10,3,62,Daya Vieja,6,38.1047248,-0.73805702,681,770303,False,daya-vieja-id03062
03063,10,3,63,Dénia,13,38.84122705,0.10661934,41672,770301,True,denia-id03063
03064,10,3,64,Dolores,4,38.13897736,-0.76969869,7237,770303,False,dolores-id03064
03065,10,3,65,Elche/Elx,82,38.26741662,-0.69775581,228647,770303,True,elche-elx-id03065
03066,10,3,66,Elda,395,38.47878894,-0.79611046,53540,770302,True,elda-id03066
03067,10,3,67,Facheca,769,38.73467536,-0.26771337,104,770301,False,facheca-id03067
03068,10,3,68,Famorca,684,38.73219338,-0.24604552,52,770301,False,famorca-id03068
03069,10,3,69,Finestrat,264,38.56697349,-0.2117688,6265,770303,False,finestrat-id03069
03070,10,3,70,Formentera del Segura,8,38.08423377,-0.74649853,4211,770303,False,formentera-del-segura-id03070
03071,10,3,71,Gata de Gorgos,79,38.7732101,0.08427495,5985,770301,False,gata-de-gorgos-id03071
03072,10,3,72,Gaianes,420,38.81311114,-0.40755768,449,770301,False,gaianes-id03072
03073,10,3,73,Gorga,542,38.71833445,-0.35671735,274,770301,False,gorga-id03073
03074,10,3,74,Granja de Rocamora,17,38.15262779,-0.89001674,2417,770303,False,granja-de-rocamora-id03074
03075,10,3,75,"Castell de Guadalest, el",571,38.67694213,-0.19735239,226,770301,False,castell-de-guadalest-el-id03075
03076,10,3,76,Guardamar del Segura,27,38.08988071,-0.65477035,15599,770303,False,guardamar-del-segura-id03076
03077,10,3,77,"Fondó de les Neus, el/Hondón de las Nieves",367,38.30855695,-0.85486637,2632,770303,False,fondo-de-les-neus-el-hondon-de-las-nieves-id03077
03078,10,3,78,Hondón de los Frailes,413,38.27358559,-0.92699487,1095,770303,False,hondon-de-los-frailes-id03078
03079,10,3,79,Ibi,754,38.62745682,-0.57466482,23456,770302,True,ibi-id03079
03080,10,3,80,Jacarilla,25,38.06070041,-0.86635637,1947,770303,False,jacarilla-id03080
03081,10,3,81,Xaló,188,38.74069906,-0.01192072,2793,770301,False,xalo-id03081
03082,10,3,82,Jávea/Xàbia,48,38.78925837,0.16340067,29067,770301,True,javea-xabia-id03082
03083,10,3,83,Jijona/Xixona,462,38.53902509,-0.50791278,7226,770302,False,jijona-xixona-id03083
03084,10,3,84,"Lorcha/Orxa, l'",267,38.84403413,-0.31125116,676,770301,False,lorcha-orxa-l-id03084
03085,10,3,85,Llíber,191,38.74347137,0.006304,1080,770301,False,lliber-id03085
03086,10,3,86,Millena,635,38.73087323,-0.36337482,210,770301,False,millena-id03086
03088,10,3,88,Monforte del Cid,228,38.37928097,-0.72989187,7658,770303,False,monforte-del-cid-id03088
03089,10,3,89,Monóvar/Monòver,390,38.43721579,-0.83780533,12460,770302,False,monovar-monover-id03089
03090,10,3,90,Mutxamel,63,38.41368396,-0.44522331,24232,770303,True,mutxamel-id03090
03091,10,3,91,Murla,283,38.75958883,-0.08306874,509,770301,False,murla-id03091
03092,10,3,92,Muro de Alcoy,391,38.77998192,-0.4357044,9114,770301,False,muro-de-alcoy-id03092
03093,10,3,93,Novelda,241,38.38606382,-0.76539782,26292,770303,True,novelda-id03093
03094,10,3,94,"Nucia, la",216,38.61761623,-0.12289748,20029,770303,False,nucia-la-id03094
03095,10,3,95,Ondara,36,38.82692459,0.01764367,6632,770301,False,ondara-id03095
03096,10,3,96,Onil,701,38.62952092,-0.6740463,7565,770302,False,onil-id03096
03097,10,3,97,Orba,154,38.78039233,-0.06371253,2216,770301,False,orba-id03097
03098,10,3,98,Orxeta,176,38.56400384,-0.2618598,875,770303,False,orxeta-id03098
03099,10,3,99,Orihuela,25,38.08574117,-0.94664572,83417,770303,True,orihuela-id03099
03100,10,3,100,Parcent,290,38.74571695,-0.06446788,1020,770301,False,parcent-id03100
03101,10,3,101,Pedreguer,85,38.7935383,0.03432468,7438,770301,False,pedreguer-id03101
03102,10,3,102,Pego,82,38.84201714,-0.11803172,10144,770301,False,pego-id03102
03103,10,3,103,Penàguila,682,38.67944195,-0.35881625,324,770302,False,penaguila-id03103
03104,10,3,104,Petrer,465,38.48480043,-0.76953712,34754,770302,True,petrer-id03104
03105,10,3,105,"Pinós, el/Pinoso",591,38.40441177,-1.04195399,7663,770302,False,pinos-el-pinoso-id03105
03106,10,3,106,Planes,451,38.78583429,-0.34478535,778,770301,False,planes-id03106
03107,10,3,107,Polop,239,38.62255314,-0.12654723,4313,770303,False,polop-id03107
03109,10,3,109,Rafal,13,38.10480713,-0.84889051,4138,770303,False,rafal-id03109
03110,10,3,110,"Ràfol d'Almúnia, el",87,38.82066727,-0.05280018,659,770301,False,rafol-d-almunia-el-id03110
03111,10,3,111,Redován,28,38.1140353,-0.90524865,7623,770303,False,redovan-id03111
03112,10,3,112,Relleu,435,38.58727823,-0.31086389,1258,770303,False,relleu-id03112
03113,10,3,113,Rojales,8,38.08892037,-0.7231866,18824,770303,False,rojales-id03113
03114,10,3,114,"Romana, la",419,38.36742371,-0.8960138,2465,770302,False,romana-la-id03114
03115,10,3,115,Sagra,103,38.81142807,-0.06512199,408,770301,False,sagra-id03115
03116,10,3,116,Salinas,493,38.52006995,-0.91278122,1583,770302,False,salinas-id03116
03117,10,3,117,Sanet y Negrals,83,38.81916633,-0.03373355,670,770301,False,sanet-y-negrals-id03117
03118,10,3,118,San Fulgencio,4,38.11222765,-0.71879025,9237,770303,False,san-fulgencio-id03118
03119,10,3,119,Sant Joan d'Alacant,40,38.40151192,-0.43660694,22804,770303,True,sant-joan-d-alacant-id03119
03120,10,3,120,San Miguel de Salinas,87,37.97713811,-0.78930554,6911,770303,False,san-miguel-de-salinas-id03120
03121,10,3,121,Santa Pola,4,38.1931155,-0.55528061,31529,770303,True,santa-pola-id03121
03122,10,3,122,San Vicente del Raspeig/Sant Vicent del Raspeig,107,38.39613348,-0.52499072,55946,770303,True,san-vicente-del-raspeig-sant-vicent-del-raspeig-id03122
03123,10,3,123,Sax,473,38.53849557,-0.81692328,9741,770302,False,sax-id03123
03124,10,3,124,Sella,412,38.60812245,-0.27218087,584,770301,False,sella-id03124
03125,10,3,125,Senija,231,38.72826598,0.04175328,622,770301,False,senija-id03125
03127,10,3,127,Tàrbena,559,38.69363337,-0.1019394,686,770301,False,tarbena-id03127
03128,10,3,128,Teulada,183,38.72911733,0.10231946,11824,770301,False,teulada-id03128
03129,10,3,129,Tibi,517,38.53125236,-0.57799241,1657,770302,False,tibi-id03129
03130,10,3,130,Tollos,776,38.75700785,-0.27417974,59,770301,False,tollos-id03130
03131,10,3,131,Tormos,129,38.80205024,-0.0723226,317,770301,False,tormos-id03131
03132,10,3,132,"Torremanzanas/Torre de les Maçanes, la",791,38.60676744,-0.41885176,743,770302,False,torremanzanas-torre-de-les-macanes-la-id03132
03133,10,3,133,Torrevieja,7,37.97775873,-0.68302608,91415,770303,True,torrevieja-id03133
03134,10,3,134,"Vall d'Alcalà, la",639,38.79456237,-0.25201489,175,770301,False,vall-d-alcala-la-alcala-de-la-jovada-id03134
03135,10,3,135,"Vall d'Ebo, la",392,38.80574426,-0.15985139,254,770301,False,vall-d-ebo-la-id03135
03136,10,3,136,Vall de Gallinera,293,38.82200923,-0.22174105,595,770301,False,vall-de-gallinera-beniali-id03136
03137,10,3,137,"Vall de Laguar, la",439,38.77743427,-0.10944662,872,770301,False,vall-de-laguar-la-id03137
03138,10,3,138,"Verger, el",21,38.84290338,0.01012098,4688,770301,False,verger-el-id03138
03139,10,3,139,"Villajoyosa/Vila Joiosa, la",16,38.50545611,-0.2319288,33951,770303,True,villajoyosa-vila-joiosa-la-id03139
03140,10,3,140,Villena,503,38.62963811,-0.86138343,34530,770302,True,villena-id03140
03901,10,3,901,"Poblets, els",13,38.85116436,0.01680187,3350,770301,False,poblets-els-setla-id03901
03902,10,3,902,Pilar de la Horadada,32,37.86372554,-0.79242783,21588,770303,False,pilar-de-la-horadada-id03902
03903,10,3,903,"Montesinos, Los",19,38.02749921,-0.74364774,4966,770303,False,montesinos-los-id03903
03904,10,3,904,San Isidro,10,38.17123285,-0.83836588,1891,770303,False,san-isidro-id03904
04001,1,4,1,Abla,853,37.1412099,-2.77953953,1426,610402,False,abla-id04001
04002,1,4,2,Abrucena,986,37.13218285,-2.7974669,1262,610402,False,abrucena-id04002
04003,1,4,3,Adra,14,36.74868325,-3.02330257,24782,610403,True,adra-id04003
04004,1,4,4,Albánchez,487,37.28686167,-2.18135854,772,610401,False,albanchez-id04004
04005,1,4,5,Alboloduy,381,37.03339629,-2.62168571,642,610403,False,alboloduy-id04005
04006,1,4,6,Albox,420,37.38850758,-2.14799133,11715,610401,True,albox-id04006
04007,1,4,7,Alcolea,746,36.97361957,-2.96066637,861,610403,False,alcolea-id04007
04008,1,4,8,Alcóntar,955,37.33611796,-2.59756879,578,610401,False,alcontar-id04008
04009,1,4,9,Alcudia de Monteagud,1025,37.23587193,-2.26678969,140,610401,False,alcudia-de-monteagud-id04009
04010,1,4,10,Alhabia,290,36.98991242,-2.58702093,681,610403,False,alhabia-id04010
04011,1,4,11,Alhama de Almería,520,36.95718281,-2.56977648,3753,610403,False,alhama-de-almeria-id04011
04012,1,4,12,Alicún,414,36.96671607,-2.60215517,239,610403,False,alicun-id04012
04013,1,4,13,Almería,16,36.83892362,-2.46413188,193351,610403,True,almeria-id04013
04014,1,4,14,Almócita,835,37.00274251,-2.78984397,167,610403,False,almocita-id04014
04015,1,4,15,Alsodux,309,37.00135999,-2.59464638,131,610403,False,alsodux-id04015
04016,1,4,16,Antas,108,37.24459175,-1.91715315,3161,610401,False,antas-id04016
04017,1,4,17,Arboleas,270,37.35116011,-2.0754646,4698,610401,False,arboleas-id04017
04018,1,4,18,Armuña de Almanzora,630,37.34982202,-2.41135555,332,610401,False,armuna-de-almanzora-id04018
04019,1,4,19,Bacares,1209,37.26120059,-2.45318749,267,610401,False,bacares-id04019
04020,1,4,20,Bayárcal,1252,37.03018267,-2.99562617,340,610403,False,bayarcal-id04020
04021,1,4,21,Bayarque,817,37.33068864,-2.43594364,216,610401,False,bayarque-id04021
04022,1,4,22,Bédar,401,37.19030833,-1.98182232,986,610402,False,bedar-id04022
04023,1,4,23,Beires,934,37.01264326,-2.79152516,112,610403,False,beires-id04023
04024,1,4,24,Benahadux,105,36.92496886,-2.45067345,4220,610403,False,benahadux-id04024
04026,1,4,26,Benitagla,945,37.23123941,-2.23834784,71,610401,False,benitagla-id04026
04027,1,4,27,Benizalón,932,37.21246044,-2.24067815,284,610402,False,benizalon-id04027
04028,1,4,28,Bentarique,316,36.98631438,-2.61889692,255,610403,False,bentarique-id04028
04029,1,4,29,Berja,340,36.84732147,-2.94948207,15323,610403,True,berja-id04029
04030,1,4,30,Canjáyar,602,37.01006973,-2.73944378,1365,610403,False,canjayar-id04030
04031,1,4,31,Cantoria,381,37.35219371,-2.19324978,3617,610401,False,cantoria-id04031
04032,1,4,32,Carboneras,6,36.99742391,-1.89349648,7852,610404,True,carboneras-id04032
04033,1,4,33,Castro de Filabres,945,37.18484936,-2.43912676,134,610402,False,castro-de-filabres-id04033
04034,1,4,34,Cóbdar,606,37.26157453,-2.21001778,154,610401,False,cobdar-id04034
04035,1,4,35,Cuevas del Almanzora,89,37.2967313,-1.87991806,13737,610404,True,cuevas-del-almanzora-id04035
04036,1,4,36,Chercos,912,37.25435736,-2.26646383,280,610401,False,chercos-id04036
04037,1,4,37,Chirivel,1039,37.59512473,-2.26658541,1689,610401,False,chirivel-id04037
04038,1,4,38,Dalías,411,36.82078429,-2.87111055,3979,610403,False,dalias-id04038
04041,1,4,41,Enix,716,36.8769393,-2.60175846,440,610403,False,enix-id04041
04043,1,4,43,Felix,820,36.86898567,-2.65861622,651,610403,False,felix-id04043
04044,1,4,44,Fines,444,37.35887254,-2.263629,2203,610401,False,fines-id04044
04045,1,4,45,Fiñana,950,37.17135438,-2.84178852,2201,610402,False,finana-id04045
04046,1,4,46,Fondón,846,36.97993167,-2.85918906,991,610403,False,fondon-id04046
04047,1,4,47,Gádor,173,36.9530923,-2.49279322,3096,610403,False,gador-id04047
04048,1,4,48,"Gallardos, Los",121,37.17027055,-1.9417002,3126,610404,False,gallardos-los-id04048
04049,1,4,49,Garrucha,20,37.1797194,-1.82347743,8632,610404,True,garrucha-id04049
04050,1,4,50,Gérgal,763,37.12083904,-2.53905331,1034,610402,False,gergal-id04050
04051,1,4,51,Huécija,409,36.96802203,-2.60994487,525,610403,False,huecija-id04051
04052,1,4,52,Huércal de Almería,69,36.88406432,-2.43599715,16663,610403,True,huercal-de-almeria-id04052
04053,1,4,53,Huércal-Overa,279,37.38937619,-1.943031,18374,610401,True,huercal-overa-id04053
04054,1,4,54,Illar,424,36.9849617,-2.63886001,386,610403,False,illar-id04054
04055,1,4,55,Instinción,427,36.99319077,-2.65979091,463,610403,False,instincion-id04055
04056,1,4,56,Laroya,860,37.29604768,-2.3320851,170,610401,False,laroya-id04056
04057,1,4,57,Láujar de Andarax,920,36.99456726,-2.88903331,1633,610403,False,laujar-de-andarax-id04057
04058,1,4,58,Líjar,604,37.29501881,-2.21999131,435,610401,False,lijar-id04058
04059,1,4,59,Lubrín,516,37.21648353,-2.06592032,1607,610401,False,lubrin-id04059
04060,1,4,60,Lucainena de las Torres,549,37.0402677,-2.2011865,614,610402,False,lucainena-de-las-torres-id04060
04061,1,4,61,Lúcar,900,37.40081642,-2.42494356,802,610401,False,lucar-id04061
04062,1,4,62,Macael,536,37.33233031,-2.30432229,5719,610401,True,macael-id04062
04063,1,4,63,María,1197,37.7115544,-2.16479793,1315,610401,False,maria-id04063
04064,1,4,64,Mojácar,140,37.14008707,-1.85016798,6838,610404,True,mojacar-id04064
04065,1,4,65,Nacimiento,596,37.10502345,-2.64792293,507,610402,False,nacimiento-id04065
04066,1,4,66,Níjar,357,36.96580749,-2.20611069,28627,610404,True,nijar-id04066
04067,1,4,67,Ohanes,961,37.03829786,-2.74552024,696,610403,False,ohanes-id04067
04068,1,4,68,Olula de Castro,1005,37.17517469,-2.47387144,169,610402,False,olula-de-castro-id04068
04069,1,4,69,Olula del Río,485,37.3531739,-2.29735506,6387,610401,True,olula-del-rio-id04069
04070,1,4,70,Oria,1022,37.48360163,-2.29602131,2495,610401,False,oria-id04070
04071,1,4,71,Padules,747,36.99862987,-2.77409853,484,610403,False,padules-id04071
04072,1,4,72,Partaloa,543,37.40605456,-2.2262643,671,610401,False,partaloa-id04072
04073,1,4,73,Paterna del Río,1201,37.02162718,-2.95313089,411,610403,False,paterna-del-rio-id04073
04074,1,4,74,Pechina,105,36.91567505,-2.44105175,3849,610403,False,pechina-id04074
04075,1,4,75,Pulpí,194,37.41211031,-1.745159,8562,610404,True,pulpi-id04075
04076,1,4,76,Purchena,551,37.34731041,-2.36166335,1662,610401,False,purchena-id04076
04077,1,4,77,Rágol,405,36.9953238,-2.68123514,331,610403,False,ragol-id04077
04078,1,4,78,Rioja,128,36.94267969,-2.46389912,1406,610403,False,rioja-id04078
04079,1,4,79,Roquetas de Mar,7,36.76467854,-2.6150576,91682,610403,True,roquetas-de-mar-id04079
04080,1,4,80,Santa Cruz de Marchena,330,37.01700109,-2.60298289,216,610403,False,santa-cruz-de-marchena-id04080
04081,1,4,81,Santa Fe de Mondújar,215,36.97425446,-2.5313124,390,610403,False,santa-fe-de-mondujar-id04081
04082,1,4,82,Senés,1008,37.20447008,-2.34726177,320,610402,False,senes-id04082
04083,1,4,83,Serón,823,37.34295293,-2.50991257,2218,610401,False,seron-id04083
04084,1,4,84,Sierro,755,37.32144567,-2.39864285,401,610401,False,sierro-id04084
04085,1,4,85,Somontín,824,37.39094721,-2.38745675,502,610401,False,somontin-id04085
04086,1,4,86,Sorbas,409,37.09821538,-2.124113,2689,610402,False,sorbas-id04086
04087,1,4,87,Suflí,630,37.33823085,-2.39014365,219,610401,False,sufli-id04087
04088,1,4,88,Tabernas,402,37.04984427,-2.39150625,3646,610402,False,tabernas-id04088
04089,1,4,89,Taberno,712,37.46930863,-2.07770837,1029,610401,False,taberno-id04089
04090,1,4,90,Tahal,1008,37.22770702,-2.28473564,396,610402,False,tahal-id04090
04091,1,4,91,Terque,285,36.98374179,-2.5960885,440,610403,False,terque-id04091
04092,1,4,92,Tíjola,688,37.34438543,-2.43885542,3776,610401,False,tijola-id04092
04093,1,4,93,Turre,51,37.15286446,-1.89426392,3563,610404,False,turre-id04093
04094,1,4,94,Turrillas,845,37.0299004,-2.26512269,229,610402,False,turrillas-id04094
04095,1,4,95,Uleila del Campo,627,37.18525562,-2.2035137,924,610402,False,uleila-del-campo-id04095
04096,1,4,96,Urrácal,744,37.39750865,-2.36518023,312,610401,False,urracal-id04096
04097,1,4,97,Velefique,926,37.19492499,-2.40192493,278,610402,False,velefique-id04097
04098,1,4,98,Vélez-Blanco,1076,37.69085853,-2.09608111,2064,610401,False,velez-blanco-id04098
04099,1,4,99,Vélez-Rubio,838,37.64799415,-2.07415558,6791,610401,True,velez-rubio-id04099
04100,1,4,100,Vera,101,37.24675325,-1.86877507,15018,610404,True,vera-id04100
04101,1,4,101,Viator,71,36.88906423,-2.42781271,5605,610403,False,viator-id04101
04102,1,4,102,Vícar,279,36.83084658,-2.64392746,24384,610403,True,vicar-id04102
04103,1,4,103,Zurgena,239,37.34234106,-2.03993235,3129,610401,False,zurgena-id04103
04901,1,4,901,"Tres Villas, Las",689,37.13516947,-2.71216116,583,610402,False,tres-villas-las-dona-maria-ocana-id04901
04902,1,4,902,"Ejido, El",81,36.77576137,-2.81490838,84144,610403,True,ejido-el-id04902
04903,1,4,903,"Mojonera, La",40,36.75456705,-2.68308803,8993,610403,True,mojonera-la-id04903
05001,7,5,1,Adanero,910,40.94423557,-4.60377542,204,670501,False,adanero-id05001
05002,7,5,2,"Adrada, La",624,40.30136381,-4.63746033,2663,670503,True,adrada-la-id05002
05005,7,5,5,Albornos,911,40.83545261,-4.88627099,205,670501,False,albornos-id05005
05007,7,5,7,Aldeanueva de Santa Cruz,1162,40.38196006,-5.41959204,132,670502,False,aldeanueva-de-santa-cruz-id05007
05008,7,5,8,Aldeaseca,859,41.04920154,-4.81751947,254,670501,False,aldeaseca-id05008
05010,7,5,10,"Aldehuela, La",1068,40.40948687,-5.40842904,177,670502,False,aldehuela-la-id05010
05012,7,5,12,Amavida,1163,40.57148196,-5.06123239,154,670502,False,amavida-id05012
05013,7,5,13,"Arenal, El",888,40.26521196,-5.08685361,1004,670503,True,arenal-el-id05013
05014,7,5,14,Arenas de San Pedro,507,40.20868842,-5.0911461,6754,670503,True,arenas-de-san-pedro-id05014
05015,7,5,15,Arevalillo,1130,40.58706309,-5.37199751,87,670502,False,arevalillo-id05015
05016,7,5,16,Arévalo,820,41.06550483,-4.71892472,8165,670501,True,arevalo-id05016
05017,7,5,17,Aveinte,1002,40.78314581,-4.83760071,85,670502,False,aveinte-id05017
05018,7,5,18,Avellaneda,1353,40.38865969,-5.38806013,32,670502,False,avellaneda-id05018
05019,7,5,19,Ávila,1131,40.65586958,-4.69771277,58933,670502,True,avila-id05019
05021,7,5,21,"Barco de Ávila, El",1004,40.35576349,-5.52704093,2652,670502,True,barco-de-avila-el-id05021
05022,7,5,22,"Barraco, El",1008,40.47607893,-4.64114216,1989,670502,True,barraco-el-id05022
05023,7,5,23,Barromán,800,41.06568002,-4.93135736,195,670501,False,barroman-id05023
05024,7,5,24,Becedas,1097,40.40515651,-5.63456079,243,670502,False,becedas-id05024
05025,7,5,25,Becedillas,1062,40.53862676,-5.33091124,107,670502,False,becedillas-id05025
05026,7,5,26,Bercial de Zapardiel,807,41.04621476,-4.97072941,230,670501,False,bercial-de-zapardiel-id05026
05027,7,5,27,"Berlanas, Las",946,40.80356051,-4.76116873,349,670501,False,berlanas-las-id05027
05029,7,5,29,Bernuy-Zapardiel,865,40.97602472,-4.94334789,136,670501,False,bernuy-zapardiel-id05029
05030,7,5,30,Berrocalejo de Aragona,1092,40.69953051,-4.5922361,46,670502,False,berrocalejo-de-aragona-id05030
05033,7,5,33,Blascomillán,948,40.8016527,-5.08872691,198,670501,False,blascomillan-id05033
05034,7,5,34,Blasconuño de Matacabras,786,41.12387142,-4.98988245,16,670501,False,blasconuno-de-matacabras-id05034
05035,7,5,35,Blascosancho,902,40.87824933,-4.63734676,120,670501,False,blascosancho-id05035
05036,7,5,36,"Bohodón, El",883,40.91626371,-4.72983798,128,670501,False,bohodon-el-id05036
05037,7,5,37,Bohoyo,1139,40.31665496,-5.44265278,312,670502,False,bohoyo-id05037
05038,7,5,38,Bonilla de la Sierra,1077,40.53083069,-5.26499051,124,670502,False,bonilla-de-la-sierra-id05038
05039,7,5,39,Brabos,994,40.78034277,-4.93950653,49,670501,False,brabos-id05039
05040,7,5,40,Bularros,1169,40.72400997,-4.86504123,71,670502,False,bularros-id05040
05041,7,5,41,Burgohondo,847,40.41614328,-4.78592781,1241,670503,True,burgohondo-id05041
05042,7,5,42,Cabezas de Alambre,900,40.94315804,-4.84057883,169,670501,False,cabezas-de-alambre-id05042
05043,7,5,43,Cabezas del Pozo,843,41.00123218,-4.95481242,84,670501,False,cabezas-del-pozo-id05043
05044,7,5,44,Cabezas del Villar,1048,40.71627838,-5.21188659,271,670502,False,cabezas-del-villar-id05044
05045,7,5,45,Cabizuela,884,40.90118972,-4.80129441,100,670501,False,cabizuela-id05045
05046,7,5,46,Canales,857,41.00396705,-4.90117313,53,670501,False,canales-id05046
05047,7,5,47,Candeleda,429,40.15248281,-5.23914852,5143,670503,True,candeleda-id05047
05048,7,5,48,Cantiveros,875,40.95192842,-4.95618555,132,670501,False,cantiveros-id05048
05049,7,5,49,Cardeñosa,1105,40.74228434,-4.74363401,473,670502,False,cardenosa-id05049
05051,7,5,51,"Carrera, La",1048,40.34733577,-5.55514674,203,670502,False,carrera-la-id05051
05052,7,5,52,Casas del Puerto,1174,40.52856873,-5.19835696,101,670502,False,casas-del-puerto-id05052
05053,7,5,53,Casasola,1310,40.66685716,-4.82825364,81,670502,False,casasola-id05053
05054,7,5,54,Casavieja,538,40.27929676,-4.7658077,1536,670503,True,casavieja-id05054
05055,7,5,55,Casillas,1012,40.32320357,-4.57233428,721,670502,False,casillas-id05055
05056,7,5,56,Castellanos de Zapardiel,783,41.08471768,-4.90890242,98,670501,False,castellanos-de-zapardiel-id05056
05057,7,5,57,Cebreros,755,40.45477868,-4.46439928,3302,670503,True,cebreros-id05057
05058,7,5,58,Cepeda la Mora,1504,40.45915722,-5.04919741,87,670502,False,cepeda-la-mora-id05058
05059,7,5,59,Cillán,1211,40.70436552,-4.97799497,104,670502,False,cillan-id05059
05060,7,5,60,Cisla,853,40.96529531,-5.01322747,122,670501,False,cisla-id05060
05061,7,5,61,"Colilla, La",1130,40.64673944,-4.76650196,336,670502,False,colilla-la-id05061
05062,7,5,62,Collado de Contreras,917,40.8877304,-4.93002136,203,670501,False,collado-de-contreras-id05062
05063,7,5,63,Collado del Mirón,1166,40.55448986,-5.35355748,36,670502,False,collado-del-miron-id05063
05064,7,5,64,Constanzana,890,40.93842104,-4.87406351,118,670501,False,constanzana-id05064
05065,7,5,65,Crespos,923,40.87320139,-4.96994627,518,670501,False,crespos-id05065
05066,7,5,66,Cuevas del Valle,842,40.29420346,-5.00939452,531,670503,False,cuevas-del-valle-id05066
05067,7,5,67,Chamartín,1197,40.70161495,-4.95811175,75,670502,False,chamartin-id05067
05069,7,5,69,Donjimeno,883,40.96004917,-4.84498084,88,670501,False,donjimeno-id05069
05070,7,5,70,Donvidas,868,41.08863948,-4.80472375,41,670501,False,donvidas-id05070
05072,7,5,72,Espinosa de los Caballeros,858,41.00911924,-4.65097435,101,670501,False,espinosa-de-los-caballeros-id05072
05073,7,5,73,Flores de Ávila,895,40.93420293,-5.07809713,326,670501,False,flores-de-avila-id05073
05074,7,5,74,Fontiveros,884,40.9302718,-4.96743565,798,670501,False,fontiveros-id05074
05075,7,5,75,Fresnedilla,622,40.2319559,-4.62111813,122,670503,False,fresnedilla-id05075
05076,7,5,76,"Fresno, El",1074,40.6141894,-4.75728726,592,670502,False,fresno-el-id05076
05077,7,5,77,Fuente el Saúz,876,40.97751384,-4.90922087,189,670501,False,fuente-el-sauz-id05077
05078,7,5,78,Fuentes de Año,822,41.01754859,-4.89800749,131,670501,False,fuentes-de-ano-id05078
05079,7,5,79,Gallegos de Altamiros,1255,40.70564361,-4.90142455,68,670502,False,gallegos-de-altamiros-id05079
05080,7,5,80,Gallegos de Sobrinos,1174,40.71158995,-5.10967937,62,670502,False,gallegos-de-sobrinos-id05080
05081,7,5,81,Garganta del Villar,1463,40.44970815,-5.10523822,40,670502,False,garganta-del-villar-id05081
05082,7,5,82,Gavilanes,678,40.27685672,-4.85383975,643,670503,False,gavilanes-id05082
05083,7,5,83,Gemuño,1103,40.59292508,-4.78230282,161,670502,False,gemuno-id05083
05084,7,5,84,Gilbuena,1062,40.4142884,-5.60883757,77,670502,False,gilbuena-id05084
05085,7,5,85,Gil García,1144,40.29722194,-5.59614999,41,670502,False,gil-garcia-id05085
05086,7,5,86,Gimialcón,948,40.87731373,-5.12294363,86,670501,False,gimialcon-id05086
05087,7,5,87,Gotarrendura,930,40.82713572,-4.73909452,170,670502,False,gotarrendura-id05087
05088,7,5,88,Grandes y San Martín,1005,40.75500242,-4.95877717,31,670502,False,grandes-y-san-martin-id05088
05089,7,5,89,Guisando,760,40.22196303,-5.14011248,554,670503,False,guisando-id05089
05090,7,5,90,Gutierre-Muñoz,885,40.98269875,-4.63649134,85,670501,False,gutierre-munoz-id05090
05092,7,5,92,Hernansancho,900,40.85748892,-4.73033726,185,670501,False,hernansancho-id05092
05093,7,5,93,Herradón de Pinares,924,40.56531144,-4.56022994,548,670502,False,herradon-de-pinares-herradon-el-id05093
05094,7,5,94,Herreros de Suso,1009,40.80253351,-5.03849366,153,670502,False,herreros-de-suso-id05094
05095,7,5,95,Higuera de las Dueñas,634,40.23788276,-4.60112267,306,670503,False,higuera-de-las-duenas-id05095
05096,7,5,96,"Hija de Dios, La",1179,40.5338715,-4.97266473,79,670502,False,hija-de-dios-la-id05096
05097,7,5,97,"Horcajada, La",1033,40.43530535,-5.46643139,515,670502,False,horcajada-la-id05097
05099,7,5,99,Horcajo de las Torres,820,41.06488191,-5.09061991,571,670501,False,horcajo-de-las-torres-id05099
05100,7,5,100,"Hornillo, El",748,40.2499538,-5.10365524,315,670503,False,hornillo-el-id05100
05101,7,5,101,Hoyocasero,1348,40.39950776,-4.97560667,283,670502,False,hoyocasero-id05101
05102,7,5,102,"Hoyo de Pinares, El",850,40.50212632,-4.4227064,2339,670503,True,hoyo-de-pinares-el-id05102
05103,7,5,103,Hoyorredondo,1038,40.46235174,-5.40982245,78,670502,False,hoyorredondo-id05103
05104,7,5,104,Hoyos del Collado,1474,40.35870192,-5.19937502,33,670502,False,hoyos-del-collado-id05104
05105,7,5,105,Hoyos del Espino,1484,40.36204127,-5.17905228,389,670502,False,hoyos-del-espino-id05105
05106,7,5,106,Hoyos de Miguel Muñoz,1534,40.3934329,-5.06690238,36,670502,False,hoyos-de-miguel-munoz-id05106
05107,7,5,107,Hurtumpascual,1170,40.69275778,-5.1109785,67,670502,False,hurtumpascual-id05107
05108,7,5,108,Junciana,994,40.41102429,-5.55741457,55,670502,False,junciana-id05108
05109,7,5,109,Langa,865,41.00755363,-4.8591111,526,670501,False,langa-id05109
05110,7,5,110,Lanzahíta,448,40.20367903,-4.93695407,904,670503,False,lanzahita-id05110
05112,7,5,112,"Losar del Barco, El",1009,40.39240577,-5.53901427,114,670502,False,losar-del-barco-el-id05112
05113,7,5,113,"Llanos de Tormes, Los",1053,40.32831194,-5.49867436,89,670502,False,llanos-de-tormes-los-id05113
05114,7,5,114,Madrigal de las Altas Torres,809,41.08975855,-4.9983297,1544,670501,True,madrigal-de-las-altas-torres-id05114
05115,7,5,115,Maello,1024,40.8110326,-4.5098191,689,670502,False,maello-id05115
05116,7,5,116,Malpartida de Corneja,1019,40.52069073,-5.35099316,127,670502,False,malpartida-de-corneja-id05116
05117,7,5,117,Mamblas,819,41.01919223,-5.00984865,225,670501,False,mamblas-id05117
05118,7,5,118,Mancera de Arriba,934,40.79092914,-5.14830175,99,670501,False,mancera-de-arriba-id05118
05119,7,5,119,Manjabálago y Ortigosa de Rioalmar,1276,40.66562271,-5.07741359,36,670502,False,manjabalago-y-ortigosa-de-rioalmar-id05119
05120,7,5,120,Marlín,1203,40.71276225,-4.82937834,39,670502,False,marlin-id05120
05121,7,5,121,Martiherrero,1230,40.67393415,-4.78179568,304,670502,False,martiherrero-id05121
05122,7,5,122,Martínez,1094,40.63081246,-5.34692026,143,670502,False,martinez-id05122
05123,7,5,123,Mediana de Voltoya,1109,40.70062006,-4.56260008,100,670502,False,mediana-de-voltoya-id05123
05124,7,5,124,Medinilla,1066,40.43974687,-5.61826337,117,670502,False,medinilla-id05124
05125,7,5,125,Mengamuñoz,1312,40.50080697,-4.99909673,63,670502,False,mengamunoz-id05125
05126,7,5,126,Mesegar de Corneja,1018,40.50157206,-5.3015071,77,670502,False,mesegar-de-corneja-id05126
05127,7,5,127,Mijares,848,40.29776767,-4.83846916,760,670503,False,mijares-id05127
05128,7,5,128,Mingorría,1032,40.75102765,-4.6651746,411,670502,False,mingorria-id05128
05129,7,5,129,"Mirón, El",1258,40.53167299,-5.40518728,145,670502,False,miron-el-id05129
05130,7,5,130,Mironcillo,1122,40.55495884,-4.82534856,103,670502,False,mironcillo-id05130
05131,7,5,131,Mirueña de los Infanzones,1110,40.73749901,-5.09371737,99,670502,False,miruena-de-los-infanzones-id05131
05132,7,5,132,Mombeltrán,635,40.26016615,-5.01788793,1152,670503,True,mombeltran-id05132
05133,7,5,133,Monsalupe,1002,40.76920147,-4.78130421,65,670502,False,monsalupe-id05133
05134,7,5,134,Moraleja de Matacabras,783,41.10730121,-4.95709677,46,670501,False,moraleja-de-matacabras-id05134
05135,7,5,135,Muñana,1169,40.59096044,-5.01464764,456,670502,False,munana-id05135
05136,7,5,136,Muñico,1088,40.70662475,-5.02790731,103,670502,False,munico-id05136
05138,7,5,138,Muñogalindo,1128,40.60386238,-4.90139731,385,670502,False,munogalindo-id05138
05139,7,5,139,Muñogrande,941,40.82157685,-4.92142682,64,670501,False,munogrande-id05139
05140,7,5,140,Muñomer del Peco,895,40.8595712,-4.88046515,134,670501,False,munomer-del-peco-id05140
05141,7,5,141,Muñopepe,1118,40.63359439,-4.82058269,116,670502,False,munopepe-id05141
05142,7,5,142,Muñosancho,905,40.92197306,-5.03504576,110,670501,False,munosancho-id05142
05143,7,5,143,Muñotello,1152,40.54269682,-5.04068939,61,670502,False,munotello-id05143
05144,7,5,144,Narrillos del Álamo,1116,40.56705525,-5.46669469,92,670502,False,narrillos-del-alamo-id05144
05145,7,5,145,Narrillos del Rebollar,1378,40.66491971,-4.96587472,51,670502,False,narrillos-del-rebollar-id05145
05147,7,5,147,Narros del Castillo,956,40.85896048,-5.0596323,188,670501,False,narros-del-castillo-id05147
05148,7,5,148,Narros del Puerto,1150,40.5406329,-4.98967711,27,670502,False,narros-del-puerto-id05148
05149,7,5,149,Narros de Saldueña,899,40.87487342,-4.86950561,116,670501,False,narros-de-salduena-id05149
05151,7,5,151,Navacepedilla de Corneja,1255,40.4858388,-5.1843499,114,670502,False,navacepedilla-de-corneja-id05151
05152,7,5,152,Nava de Arévalo,864,40.97853053,-4.7763084,819,670501,False,nava-de-arevalo-id05152
05153,7,5,153,Nava del Barco,1143,40.29330109,-5.54153356,102,670502,False,nava-del-barco-id05153
05154,7,5,154,Navadijos,1520,40.42559007,-5.08356359,40,670502,False,navadijos-id05154
05155,7,5,155,Navaescurial,1211,40.47160594,-5.27677503,54,670502,False,navaescurial-id05155
05156,7,5,156,Navahondilla,740,40.32528223,-4.49364928,327,670503,False,navahondilla-id05156
05157,7,5,157,Navalacruz,1238,40.43997747,-4.93221308,259,670502,False,navalacruz-id05157
05158,7,5,158,Navalmoral,1042,40.45986732,-4.7632382,390,670502,False,navalmoral-id05158
05159,7,5,159,Navalonguilla,1185,40.27760913,-5.49815864,258,670502,False,navalonguilla-id05159
05160,7,5,160,Navalosa,1304,40.40182635,-4.93118074,342,670502,False,navalosa-id05160
05161,7,5,161,Navalperal de Pinares,1284,40.59448598,-4.4091325,902,670502,False,navalperal-de-pinares-id05161
05162,7,5,162,Navalperal de Tormes,1301,40.35287936,-5.30007964,101,670502,False,navalperal-de-tormes-id05162
05163,7,5,163,Navaluenga,763,40.41273328,-4.70814773,2027,670503,True,navaluenga-id05163
05164,7,5,164,Navaquesera,1509,40.42502608,-4.9087644,28,670502,False,navaquesera-id05164
05165,7,5,165,Navarredonda de Gredos,1523,40.36211331,-5.13611924,492,670502,False,navarredonda-de-gredos-id05165
05166,7,5,166,Navarredondilla,1132,40.45356275,-4.82124612,231,670502,False,navarredondilla-id05166
05167,7,5,167,Navarrevisca,1129,40.36422772,-4.89511844,295,670502,False,navarrevisca-id05167
05168,7,5,168,"Navas del Marqués, Las",1296,40.60304637,-4.32600955,5520,670502,True,navas-del-marques-las-id05168
05169,7,5,169,Navatalgordo,1262,40.41539353,-4.86979955,233,670502,False,navatalgordo-id05169
05170,7,5,170,Navatejares,1043,40.33578195,-5.53085021,49,670502,False,navatejares-id05170
05171,7,5,171,Neila de San Miguel,1164,40.42461504,-5.65100832,79,670502,False,neila-de-san-miguel-id05171
05172,7,5,172,Niharra,1088,40.58858781,-4.83946125,154,670502,False,niharra-id05172
05173,7,5,173,Ojos-Albos,1225,40.70646053,-4.51642844,64,670502,False,ojos-albos-id05173
05174,7,5,174,Orbita,865,40.99838127,-4.64724662,80,670501,False,orbita-id05174
05175,7,5,175,"Oso, El",893,40.84284248,-4.77127014,187,670501,False,oso-el-id05175
05176,7,5,176,Padiernos,1103,40.62193213,-4.84478522,290,670502,False,padiernos-id05176
05177,7,5,177,Pajares de Adaja,878,40.92369651,-4.64035589,182,670501,False,pajares-de-adaja-id05177
05178,7,5,178,Palacios de Goda,818,41.11785196,-4.7849894,425,670501,False,palacios-de-goda-id05178
05179,7,5,179,Papatrigo,889,40.87015084,-4.83148368,258,670501,False,papatrigo-id05179
05180,7,5,180,"Parral, El",1049,40.79782671,-4.99028495,86,670502,False,parral-el-id05180
05181,7,5,181,Pascualcobo,1069,40.6553393,-5.27726468,41,670502,False,pascualcobo-id05181
05182,7,5,182,Pedro Bernardo,801,40.24318819,-4.91435677,927,670503,False,pedro-bernardo-id05182
05183,7,5,183,Pedro-Rodríguez,876,40.93652348,-4.78531524,168,670501,False,pedro-rodriguez-id05183
05184,7,5,184,Peguerinos,1351,40.62652248,-4.23331613,330,670502,False,peguerinos-id05184
05185,7,5,185,Peñalba de Ávila,1073,40.77199055,-4.74734866,115,670502,False,penalba-de-avila-id05185
05186,7,5,186,Piedrahíta,1060,40.46377754,-5.32791926,1990,670502,True,piedrahita-id05186
05187,7,5,187,Piedralaves,717,40.31768435,-4.69830037,2265,670503,True,piedralaves-id05187
05188,7,5,188,Poveda,1201,40.56628666,-5.07967686,56,670502,False,poveda-id05188
05189,7,5,189,Poyales del Hoyo,548,40.1724327,-5.16544718,530,670503,False,poyales-del-hoyo-id05189
05190,7,5,190,Pozanco,915,40.80000542,-4.66945582,57,670501,False,pozanco-id05190
05191,7,5,191,Pradosegar,1178,40.54877889,-5.07194337,140,670502,False,pradosegar-id05191
05192,7,5,192,Puerto Castilla,1168,40.28982213,-5.62943843,112,670502,False,puerto-castilla-id05192
05193,7,5,193,Rasueros,832,41.02309217,-5.0749183,211,670501,False,rasueros-id05193
05194,7,5,194,Riocabado,906,40.83337644,-4.80605215,157,670501,False,riocabado-id05194
05195,7,5,195,Riofrío,1182,40.54728355,-4.7779986,241,670502,False,riofrio-id05195
05196,7,5,196,Rivilla de Barajas,901,40.90129693,-4.98775612,69,670501,False,rivilla-de-barajas-id05196
05197,7,5,197,Salobral,1084,40.6114066,-4.81089062,123,670502,False,salobral-id05197
05198,7,5,198,Salvadiós,951,40.87683079,-5.09616762,82,670501,False,salvadios-id05198
05199,7,5,199,San Bartolomé de Béjar,1114,40.40828588,-5.66269263,44,670502,False,san-bartolome-de-bejar-id05199
05200,7,5,200,San Bartolomé de Corneja,991,40.49287529,-5.3852527,59,670502,False,san-bartolome-de-corneja-id05200
05201,7,5,201,San Bartolomé de Pinares,1039,40.54318685,-4.54007894,599,670502,False,san-bartolome-de-pinares-id05201
05204,7,5,204,Sanchidrián,922,40.89198117,-4.58156208,799,670501,False,sanchidrian-id05204
05205,7,5,205,Sanchorreja,1310,40.6648407,-4.91485123,85,670502,False,sanchorreja-id05205
05206,7,5,206,San Esteban de los Patos,1117,40.74608208,-4.62473304,33,670502,False,san-esteban-de-los-patos-id05206
05207,7,5,207,San Esteban del Valle,806,40.27571956,-4.97954984,816,670503,False,san-esteban-del-valle-id05207
05208,7,5,208,San Esteban de Zapardiel,781,41.09215849,-4.90123587,40,670501,False,san-esteban-de-zapardiel-id05208
05209,7,5,209,San García de Ingelmos,1066,40.76993145,-5.11618039,86,670502,False,san-garcia-de-ingelmos-id05209
05210,7,5,210,San Juan de la Encinilla,910,40.82881844,-4.83969097,100,670501,False,san-juan-de-la-encinilla-id05210
05211,7,5,211,San Juan de la Nava,1117,40.47824649,-4.68397122,522,670502,False,san-juan-de-la-nava-id05211
05212,7,5,212,San Juan del Molinillo,1140,40.45892707,-4.81925634,244,670502,False,san-juan-del-molinillo-id05212
05213,7,5,213,San Juan del Olmo,1282,40.6531732,-5.05025004,117,670502,False,san-juan-del-olmo-id05213
05214,7,5,214,San Lorenzo de Tormes,1030,40.3707565,-5.48740524,45,670502,False,san-lorenzo-de-tormes-id05214
05215,7,5,215,San Martín de la Vega del Alberche,1517,40.42971228,-5.15637504,187,670502,False,san-martin-de-la-vega-del-alberche-id05215
05216,7,5,216,San Martín del Pimpollar,1335,40.36843829,-5.05612783,186,670502,False,san-martin-del-pimpollar-id05216
05217,7,5,217,San Miguel de Corneja,1059,40.48772442,-5.28665207,64,670502,False,san-miguel-de-corneja-id05217
05218,7,5,218,San Miguel de Serrezuela,1097,40.6703663,-5.28809206,141,670502,False,san-miguel-de-serrezuela-id05218
05219,7,5,219,San Pascual,881,40.88239478,-4.75662182,49,670501,False,san-pascual-id05219
05220,7,5,220,San Pedro del Arroyo,935,40.80511148,-4.86761787,460,670501,False,san-pedro-del-arroyo-id05220
05221,7,5,221,Santa Cruz del Valle,724,40.25084253,-5.00337327,414,670503,False,santa-cruz-del-valle-id05221
05222,7,5,222,Santa Cruz de Pinares,1010,40.54221491,-4.57937886,163,670502,False,santa-cruz-de-pinares-id05222
05224,7,5,224,Santa María del Arroyo,1152,40.60413154,-4.92429815,112,670502,False,santa-maria-del-arroyo-id05224
05225,7,5,225,Santa María del Berrocal,1048,40.50953207,-5.40604773,420,670502,False,santa-maria-del-berrocal-id05225
05226,7,5,226,Santa María de los Caballeros,1037,40.38817734,-5.45157451,80,670502,False,santa-maria-de-los-caballeros-id05226
05227,7,5,227,Santa María del Tiétar,697,40.30401501,-4.55499216,540,670503,False,santa-maria-del-tietar-id05227
05228,7,5,228,Santiago del Collado,1224,40.43356101,-5.35658286,184,670502,False,santiago-del-collado-id05228
05229,7,5,229,Santo Domingo de las Posadas,928,40.81240832,-4.63302434,79,670501,False,santo-domingo-de-las-posadas-id05229
05230,7,5,230,Santo Tomé de Zabarcos,959,40.78778403,-4.91030758,72,670501,False,santo-tome-de-zabarcos-id05230
05231,7,5,231,San Vicente de Arévalo,877,40.96798343,-4.80063719,201,670501,False,san-vicente-de-arevalo-id05231
05232,7,5,232,"Serrada, La",1106,40.63147261,-4.79267984,113,670502,False,serrada-la-id05232
05233,7,5,233,Serranillos,1220,40.33734342,-4.91117661,272,670502,False,serranillos-id05233
05234,7,5,234,Sigeres,962,40.79932062,-4.93262663,50,670501,False,sigeres-id05234
05235,7,5,235,Sinlabajos,827,41.07717554,-4.8319548,126,670501,False,sinlabajos-id05235
05236,7,5,236,Solana de Ávila,1148,40.3147188,-5.61476569,146,670502,False,solana-de-avila-id05236
05237,7,5,237,Solana de Rioalmar,1120,40.73792327,-5.01011096,191,670502,False,solana-de-rioalmar-id05237
05238,7,5,238,Solosancho,1118,40.55422071,-4.90618079,924,670502,False,solosancho-id05238
05239,7,5,239,Sotalbo,1155,40.54195506,-4.85000498,228,670502,False,sotalbo-id05239
05240,7,5,240,Sotillo de la Adrada,635,40.29254199,-4.58061179,4705,670503,True,sotillo-de-la-adrada-id05240
05241,7,5,241,"Tiemblo, El",685,40.41568332,-4.50074945,4301,670503,True,tiemblo-el-id05241
05242,7,5,242,Tiñosillos,867,40.93452518,-4.72846115,804,670501,False,tinosillos-id05242
05243,7,5,243,Tolbaños,1139,40.75147571,-4.58143919,101,670502,False,tolbanos-id05243
05244,7,5,244,Tormellas,1063,40.30493371,-5.5096253,60,670502,False,tormellas-id05244
05245,7,5,245,Tornadizos de Ávila,1191,40.62636604,-4.61427449,399,670502,False,tornadizos-de-avila-id05245
05246,7,5,246,Tórtoles,1267,40.56176842,-5.25924223,65,670502,False,tortoles-id05246
05247,7,5,247,"Torre, La",1129,40.58857728,-4.96478322,285,670502,False,torre-la-id05247
05249,7,5,249,Umbrías,1083,40.31580964,-5.58064638,117,670502,False,umbrias-id05249
05251,7,5,251,Vadillo de la Sierra,1349,40.60628434,-5.12652621,72,670502,False,vadillo-de-la-sierra-id05251
05252,7,5,252,Valdecasa,1366,40.65918664,-5.01157755,61,670502,False,valdecasa-id05252
05253,7,5,253,Vega de Santa María,942,40.83627196,-4.63419076,96,670501,False,vega-de-santa-maria-id05253
05254,7,5,254,Velayos,933,40.8410303,-4.62255309,248,670501,False,velayos-id05254
05256,7,5,256,Villaflor,977,40.75894553,-4.87376482,130,670502,False,villaflor-id05256
05257,7,5,257,Villafranca de la Sierra,1105,40.49732636,-5.22997426,136,670502,False,villafranca-de-la-sierra-id05257
05258,7,5,258,Villanueva de Gómez,890,40.88368722,-4.71624255,144,670501,False,villanueva-de-gomez-id05258
05259,7,5,259,Villanueva del Aceral,843,41.0416012,-4.85302538,141,670501,False,villanueva-del-aceral-id05259
05260,7,5,260,Villanueva del Campillo,1450,40.57833664,-5.17990231,104,670502,False,villanueva-del-campillo-id05260
05261,7,5,261,Villar de Corneja,997,40.47509037,-5.43253663,45,670502,False,villar-de-corneja-id05261
05262,7,5,262,Villarejo del Valle,822,40.28592335,-4.99699805,394,670502,False,villarejo-del-valle-id05262
05263,7,5,263,Villatoro,1183,40.55534171,-5.11094168,191,670502,False,villatoro-id05263
05264,7,5,264,Viñegra de Moraña,906,40.85154867,-4.92016889,53,670501,False,vinegra-de-morana-id05264
05265,7,5,265,Vita,991,40.81238203,-5.00595457,90,670502,False,vita-id05265
05266,7,5,266,Zapardiel de la Cañada,1144,40.60595082,-5.33983309,103,670502,False,zapardiel-de-la-canada-id05266
05267,7,5,267,Zapardiel de la Ribera,1349,40.35469296,-5.32785857,114,670502,False,zapardiel-de-la-ribera-id05267
05901,7,5,901,San Juan de Gredos,1348,40.3605728,-5.25149602,287,670502,False,san-juan-de-gredos-navacepeda-de-tormes-id05901
05902,7,5,902,Santa María del Cubillo,1206,40.74221173,-4.47277814,350,670502,False,santa-maria-del-cubillo-aldeavieja-id05902
05903,7,5,903,Diego del Carpio,1052,40.66481529,-5.3260631,158,670502,False,diego-del-carpio-diego-alvaro-id05903
05904,7,5,904,Santiago del Tormes,1125,40.33042306,-5.39855186,151,670502,False,santiago-del-tormes-aliseda-de-tormes-id05904
05905,7,5,905,Villanueva de Ávila,1059,40.37877278,-4.82250544,227,670502,False,villanueva-de-avila-id05905
06001,11,6,1,Acedera,316,39.07492505,-5.57151763,831,700601,False,acedera-id06001
06002,11,6,2,Aceuchal,303,38.64700914,-6.48701436,5538,700603,True,aceuchal-id06002
06003,11,6,3,Ahillones,580,38.26032661,-5.86674807,990,700604,False,ahillones-id06003
06004,11,6,4,Alange,322,38.78524438,-6.24722704,1946,700603,False,alange-id06004
06005,11,6,5,"Albuera, La",251,38.71641036,-6.8226616,2029,700601,False,albuera-la-id06005
06006,11,6,6,Alburquerque,430,39.21986861,-7.00101838,5524,700601,False,alburquerque-id06006
06007,11,6,7,Alconchel,277,38.51593336,-7.0713971,1840,700601,False,alconchel-id06007
06008,11,6,8,Alconera,515,38.3981974,-6.47650617,743,700604,False,alconera-id06008
06009,11,6,9,Aljucén,261,39.04476158,-6.33122406,230,700601,False,aljucen-id06009
06010,11,6,10,Almendral,320,38.61467816,-6.82136683,1312,700603,False,almendral-id06010
06011,11,6,11,Almendralejo,337,38.68445279,-6.40778009,35014,700603,True,almendralejo-id06011
06012,11,6,12,Arroyo de San Serván,225,38.85331478,-6.45460038,4195,700601,False,arroyo-de-san-servan-id06012
06013,11,6,13,Atalaya,502,38.33308979,-6.47356341,308,700604,False,atalaya-id06013
06014,11,6,14,Azuaga,592,38.2578584,-5.67527592,8145,700604,True,azuaga-id06014
06015,11,6,15,Badajoz,182,38.87874339,-6.97099704,150517,700601,True,badajoz-id06015
06016,11,6,16,Barcarrota,492,38.51443528,-6.84900488,3631,700603,False,barcarrota-id06016
06017,11,6,17,Baterno,562,38.95669787,-4.9113809,323,700602,False,baterno-id06017
06018,11,6,18,Benquerencia de la Serena,695,38.70042909,-5.49447757,903,700603,False,benquerencia-de-la-serena-id06018
06019,11,6,19,Berlanga,570,38.28305387,-5.82908706,2456,700604,False,berlanga-id06019
06020,11,6,20,Bienvenida,607,38.29861964,-6.21035226,2254,700604,False,bienvenida-id06020
06021,11,6,21,Bodonal de la Sierra,603,38.14723868,-6.55850635,1093,700604,False,bodonal-de-la-sierra-id06021
06022,11,6,22,Burguillos del Cerro,406,38.38138621,-6.59168483,3204,700604,False,burguillos-del-cerro-id06022
06023,11,6,23,Cabeza del Buey,531,38.7214897,-5.21891444,5234,700603,False,cabeza-del-buey-id06023
06024,11,6,24,Cabeza la Vaca,759,38.0864699,-6.42110316,1403,700604,False,cabeza-la-vaca-id06024
06025,11,6,25,Calamonte,227,38.88893824,-6.38613315,6354,700601,True,calamonte-id06025
06026,11,6,26,Calera de León,710,38.10610107,-6.33785269,1002,700604,False,calera-de-leon-id06026
06027,11,6,27,Calzadilla de los Barros,561,38.30038359,-6.31714218,848,700604,False,calzadilla-de-los-barros-id06027
06028,11,6,28,Campanario,396,38.86338276,-5.61778505,5182,700603,False,campanario-id06028
06029,11,6,29,Campillo de Llerena,487,38.50201278,-5.83144538,1424,700603,False,campillo-de-llerena-id06029
06030,11,6,30,Capilla,496,38.81944508,-5.08452393,187,700602,False,capilla-id06030
06031,11,6,31,Carmonita,384,39.15390858,-6.33797825,561,700601,False,carmonita-id06031
06032,11,6,32,"Carrascalejo, El",301,39.02256965,-6.33741854,68,700601,False,carrascalejo-el-id06032
06033,11,6,33,Casas de Don Pedro,366,39.10397259,-5.33066018,1559,700602,False,casas-de-don-pedro-id06033
06034,11,6,34,Casas de Reina,630,38.20316929,-5.97031285,196,700604,False,casas-de-reina-id06034
06035,11,6,35,Castilblanco,503,39.28494719,-5.08950312,1094,700602,False,castilblanco-id06035
06036,11,6,36,Castuera,509,38.72139142,-5.54521191,6255,700603,True,castuera-id06036
06037,11,6,37,"Codosera, La",336,39.20595558,-7.17363093,2221,700601,False,codosera-la-id06037
06038,11,6,38,Cordobilla de Lácara,301,39.14776685,-6.43602265,974,700601,False,cordobilla-de-lacara-id06038
06039,11,6,39,"Coronada, La",351,38.92053331,-5.67088279,2197,700601,False,coronada-la-id06039
06040,11,6,40,Corte de Peleas,243,38.72510832,-6.67053644,1301,700603,False,corte-de-peleas-id06040
06041,11,6,41,Cristina,293,38.83667712,-6.09950867,565,700601,False,cristina-id06041
06042,11,6,42,Cheles,192,38.51160599,-7.27991871,1220,700601,False,cheles-id06042
06043,11,6,43,Don Álvaro,259,38.84855612,-6.27500576,771,700601,False,don-alvaro-id06043
06044,11,6,44,Don Benito,278,38.95410117,-5.86126299,37011,700601,True,don-benito-id06044
06045,11,6,45,Entrín Bajo,241,38.71905481,-6.71439072,580,700603,False,entrin-bajo-id06045
06046,11,6,46,Esparragalejo,231,38.94282883,-6.43588312,1498,700601,False,esparragalejo-id06046
06047,11,6,47,Esparragosa de la Serena,448,38.64976324,-5.60615289,1058,700603,False,esparragosa-de-la-serena-id06047
06048,11,6,48,Esparragosa de Lares,458,38.97455695,-5.27081265,987,700602,False,esparragosa-de-lares-id06048
06049,11,6,49,Feria,550,38.51193337,-6.5641732,1230,700603,False,feria-id06049
06050,11,6,50,Fregenal de la Sierra,572,38.16988677,-6.65364856,5001,700604,False,fregenal-de-la-sierra-id06050
06051,11,6,51,Fuenlabrada de los Montes,539,39.13206947,-4.93448349,1930,700602,False,fuenlabrada-de-los-montes-id06051
06052,11,6,52,Fuente de Cantos,582,38.24660131,-6.30921689,5002,700604,False,fuente-de-cantos-id06052
06053,11,6,53,Fuente del Arco,698,38.15182185,-5.89717958,719,700604,False,fuente-del-arco-id06053
06054,11,6,54,Fuente del Maestre,440,38.52863453,-6.44944794,6906,700603,True,fuente-del-maestre-id06054
06055,11,6,55,Fuentes de León,753,38.06794873,-6.5388528,2430,700604,False,fuentes-de-leon-id06055
06056,11,6,56,Garbayuela,488,39.049844,-4.99800972,543,700602,False,garbayuela-id06056
06057,11,6,57,Garlitos,553,38.88243029,-5.04766506,631,700602,False,garlitos-id06057
06058,11,6,58,"Garrovilla, La",207,38.92093607,-6.47512317,2434,700601,False,garrovilla-la-id06058
06059,11,6,59,Granja de Torrehermosa,594,38.30878083,-5.5976388,2186,700604,False,granja-de-torrehermosa-id06059
06060,11,6,60,Guareña,280,38.8593997,-6.0999444,7227,700601,True,guarena-id06060
06061,11,6,61,"Haba, La",305,38.9198465,-5.80084036,1296,700601,False,haba-la-id06061
06062,11,6,62,Helechosa de los Montes,437,39.31243278,-4.90927313,715,700602,False,helechosa-de-los-montes-id06062
06063,11,6,63,Herrera del Duque,463,39.16548351,-5.04958664,3706,700602,False,herrera-del-duque-id06063
06064,11,6,64,Higuera de la Serena,474,38.64521533,-5.74159676,1001,700603,False,higuera-de-la-serena-id06064
06065,11,6,65,Higuera de Llerena,528,38.37506794,-5.99837875,348,700604,False,higuera-de-llerena-id06065
06066,11,6,66,Higuera de Vargas,353,38.44375987,-6.97445533,2028,700604,False,higuera-de-vargas-id06066
06067,11,6,67,Higuera la Real,626,38.14215324,-6.68914319,2401,700604,False,higuera-la-real-id06067
06068,11,6,68,Hinojosa del Valle,442,38.48277472,-6.18463421,519,700604,False,hinojosa-del-valle-id06068
06069,11,6,69,Hornachos,507,38.55475085,-6.06729778,3777,700603,False,hornachos-id06069
06070,11,6,70,Jerez de los Caballeros,504,38.32205063,-6.77141685,9623,700604,True,jerez-de-los-caballeros-id06070
06071,11,6,71,"Lapa, La",466,38.45360928,-6.51949107,285,700603,False,lapa-la-id06071
06072,11,6,72,Lobón,246,38.85068645,-6.62348869,2840,700601,False,lobon-id06072
06073,11,6,73,Llera,480,38.44729135,-6.05632864,905,700604,False,llera-id06073
06074,11,6,74,Llerena,640,38.23750303,-6.01526269,5969,700604,True,llerena-id06074
06075,11,6,75,Magacela,460,38.89531141,-5.73334486,561,700601,False,magacela-id06075
06076,11,6,76,Maguilla,527,38.36769157,-5.83802274,1010,700604,False,maguilla-id06076
06077,11,6,77,Malcocinado,625,38.12182071,-5.69307991,405,700604,False,malcocinado-id06077
06078,11,6,78,Malpartida de la Serena,479,38.67450582,-5.63980554,610,700603,False,malpartida-de-la-serena-id06078
06079,11,6,79,Manchita,337,38.81381428,-6.02126085,761,700601,False,manchita-id06079
06080,11,6,80,Medellín,249,38.96316089,-5.95817591,2321,700601,False,medellin-id06080
06081,11,6,81,Medina de las Torres,529,38.34130493,-6.4131934,1287,700604,False,medina-de-las-torres-id06081
06082,11,6,82,Mengabril,251,38.93601544,-5.9329165,479,700601,False,mengabril-id06082
06083,11,6,83,Mérida,224,38.91738788,-6.34417211,58985,700601,True,merida-id06083
06084,11,6,84,Mirandilla,296,39.00193263,-6.28831454,1357,700601,False,mirandilla-id06084
06085,11,6,85,Monesterio,752,38.08759297,-6.27266541,4345,700604,False,monesterio-id06085
06086,11,6,86,Montemolín,628,38.15403299,-6.21281756,1467,700604,False,montemolin-id06086
06087,11,6,87,Monterrubio de la Serena,558,38.58911098,-5.44452908,2537,700603,False,monterrubio-de-la-serena-id06087
06088,11,6,88,Montijo,200,38.90978737,-6.6175854,15961,700601,True,montijo-id06088
06089,11,6,89,"Morera, La",423,38.5456615,-6.65380907,744,700603,False,morera-la-id06089
06090,11,6,90,"Nava de Santiago, La",264,39.0630011,-6.50415639,1015,700601,False,nava-de-santiago-la-id06090
06091,11,6,91,Navalvillar de Pela,348,39.09085587,-5.46977095,4714,700602,False,navalvillar-de-pela-id06091
06092,11,6,92,Nogales,372,38.58668872,-6.74935083,699,700603,False,nogales-id06092
06093,11,6,93,Oliva de la Frontera,378,38.27789887,-6.91844655,5461,700604,False,oliva-de-la-frontera-id06093
06094,11,6,94,Oliva de Mérida,323,38.79042647,-6.12361415,1795,700603,False,oliva-de-merida-id06094
06095,11,6,95,Olivenza,267,38.68566049,-7.09959828,12104,700601,True,olivenza-id06095
06096,11,6,96,Orellana de la Sierra,407,39.03106626,-5.49739764,258,700601,False,orellana-de-la-sierra-id06096
06097,11,6,97,Orellana la Vieja,359,39.00463934,-5.53341769,2842,700601,False,orellana-la-vieja-id06097
06098,11,6,98,Palomas,316,38.69271447,-6.13504231,698,700603,False,palomas-id06098
06099,11,6,99,"Parra, La",518,38.52077384,-6.62294036,1381,700603,False,parra-la-id06099
06100,11,6,100,Peñalsordo,418,38.81986447,-5.11383709,1088,700603,False,penalsordo-id06100
06101,11,6,101,Peraleda del Zaucejo,547,38.47304541,-5.5660814,562,700603,False,peraleda-del-zaucejo-id06101
06102,11,6,102,Puebla de Alcocer,528,38.98521722,-5.25725408,1249,700602,False,puebla-de-alcocer-id06102
06103,11,6,103,Puebla de la Calzada,190,38.89433422,-6.62503114,5991,700601,True,puebla-de-la-calzada-id06103
06104,11,6,104,Puebla de la Reina,378,38.66340615,-6.10284251,804,700603,False,puebla-de-la-reina-id06104
06105,11,6,105,Puebla del Maestre,554,38.08466572,-6.07947177,767,700604,False,puebla-del-maestre-id06105
06106,11,6,106,Puebla del Prior,370,38.57063153,-6.19871751,523,700603,False,puebla-del-prior-id06106
06107,11,6,107,Puebla de Obando,377,39.17754539,-6.62826828,1913,700601,False,puebla-de-obando-id06107
06108,11,6,108,Puebla de Sancho Pérez,526,38.39522626,-6.40041794,2798,700603,False,puebla-de-sancho-perez-id06108
06109,11,6,109,Quintana de la Serena,410,38.74137335,-5.67200399,4894,700603,False,quintana-de-la-serena-id06109
06110,11,6,110,Reina,744,38.18578669,-5.94863713,180,700604,False,reina-id06110
06111,11,6,111,Rena,262,39.05312924,-5.80821505,660,700601,False,rena-id06111
06112,11,6,112,Retamal de Llerena,468,38.57795826,-5.83832811,484,700603,False,retamal-de-llerena-id06112
06113,11,6,113,Ribera del Fresno,395,38.55155911,-6.23928193,3496,700603,False,ribera-del-fresno-id06113
06114,11,6,114,Risco,514,38.91085894,-5.12125068,151,700602,False,risco-id06114
06115,11,6,115,"Roca de la Sierra, La",246,39.10956891,-6.68968921,1514,700601,False,roca-de-la-sierra-la-id06115
06116,11,6,116,Salvaleón,523,38.50960903,-6.78590473,1916,700603,False,salvaleon-id06116
06117,11,6,117,Salvatierra de los Barros,619,38.49066078,-6.68445132,1721,700603,False,salvatierra-de-los-barros-id06117
06118,11,6,118,Sancti-Spíritus,485,38.92521313,-5.14632753,222,700602,False,sancti-spiritus-id06118
06119,11,6,119,San Pedro de Mérida,290,38.94987235,-6.18692716,853,700601,False,san-pedro-de-merida-id06119
06120,11,6,120,Santa Amalia,252,39.01178649,-6.0122371,4196,700601,False,santa-amalia-id06120
06121,11,6,121,Santa Marta,335,38.61476819,-6.6274065,4321,700603,False,santa-marta-id06121
06122,11,6,122,"Santos de Maimona, Los",526,38.44923755,-6.38368803,8249,700603,True,santos-de-maimona-los-id06122
06123,11,6,123,San Vicente de Alcántara,501,39.36059061,-7.13657708,5725,700601,True,san-vicente-de-alcantara-id06123
06124,11,6,124,Segura de León,685,38.12043461,-6.53106787,2052,700604,False,segura-de-leon-id06124
06125,11,6,125,Siruela,519,38.97574324,-5.05002707,2059,700602,False,siruela-id06125
06126,11,6,126,Solana de los Barros,263,38.72591237,-6.53712337,2717,700603,False,solana-de-los-barros-id06126
06127,11,6,127,Talarrubias,439,39.03794326,-5.23380363,3597,700602,False,talarrubias-id06127
06128,11,6,128,Talavera la Real,187,38.87844356,-6.76993127,5535,700601,False,talavera-la-real-id06128
06129,11,6,129,Táliga,305,38.52763407,-7.01457961,746,700601,False,taliga-id06129
06130,11,6,130,Tamurejo,538,38.99068302,-4.94851276,235,700602,False,tamurejo-id06130
06131,11,6,131,Torre de Miguel Sesmero,322,38.61907612,-6.79641452,1274,700603,False,torre-de-miguel-sesmero-id06131
06132,11,6,132,Torremayor,196,38.90067606,-6.53633859,1041,700601,False,torremayor-id06132
06133,11,6,133,Torremejía,302,38.78950074,-6.37812152,2263,700601,False,torremejia-id06133
06134,11,6,134,Trasierra,694,38.19121125,-5.9941539,659,700604,False,trasierra-id06134
06135,11,6,135,Trujillanos,260,38.95067262,-6.25988129,1430,700601,False,trujillanos-id06135
06136,11,6,136,Usagre,563,38.35619908,-6.16561136,1884,700604,False,usagre-id06136
06137,11,6,137,Valdecaballeros,401,39.2438431,-5.19011761,1156,700602,False,valdecaballeros-id06137
06138,11,6,138,Valdetorres,243,38.91595395,-6.06914717,1255,700601,False,valdetorres-id06138
06139,11,6,139,Valencia de las Torres,534,38.40221511,-6.00297541,673,700604,False,valencia-de-las-torres-id06139
06140,11,6,140,Valencia del Mombuey,295,38.24297095,-7.11881281,768,700604,False,valencia-del-mombuey-id06140
06141,11,6,141,Valencia del Ventoso,493,38.26634201,-6.47398252,2115,700604,False,valencia-del-ventoso-id06141
06142,11,6,142,Valverde de Burguillos,415,38.32810904,-6.53755107,302,700604,False,valverde-de-burguillos-id06142
06143,11,6,143,Valverde de Leganés,289,38.67237586,-6.98171271,4193,700601,False,valverde-de-leganes-id06143
06144,11,6,144,Valverde de Llerena,581,38.21406166,-5.82101098,662,700604,False,valverde-de-llerena-id06144
06145,11,6,145,Valverde de Mérida,266,38.9113823,-6.22022833,1107,700601,False,valverde-de-merida-id06145
06146,11,6,146,Valle de la Serena,421,38.70173619,-5.79881484,1332,700603,False,valle-de-la-serena-id06146
06147,11,6,147,Valle de Matamoros,608,38.37894799,-6.80361045,407,700604,False,valle-de-matamoros-id06147
06148,11,6,148,Valle de Santa Ana,504,38.36772345,-6.78986116,1162,700604,False,valle-de-santa-ana-id06148
06149,11,6,149,Villafranca de los Barros,409,38.56115283,-6.33990452,13314,700603,True,villafranca-de-los-barros-id06149
06150,11,6,150,Villagarcía de la Torre,590,38.2928097,-6.07950624,959,700604,False,villagarcia-de-la-torre-id06150
06151,11,6,151,Villagonzalo,236,38.86306603,-6.19762595,1290,700601,False,villagonzalo-id06151
06152,11,6,152,Villalba de los Barros,306,38.61320353,-6.50930221,1588,700603,False,villalba-de-los-barros-id06152
06153,11,6,153,Villanueva de la Serena,293,38.97390781,-5.79980751,26101,700601,True,villanueva-de-la-serena-id06153
06154,11,6,154,Villanueva del Fresno,257,38.37502925,-7.16667588,3538,700604,False,villanueva-del-fresno-id06154
06155,11,6,155,Villar del Rey,247,39.13265205,-6.84779951,2301,700601,False,villar-del-rey-id06155
06156,11,6,156,Villar de Rena,269,39.07722738,-5.81199075,1420,700601,False,villar-de-rena-id06156
06157,11,6,157,Villarta de los Montes,542,39.21369919,-4.79208457,522,700602,False,villarta-de-los-montes-id06157
06158,11,6,158,Zafra,507,38.42617898,-6.4193056,16828,700603,True,zafra-id06158
06159,11,6,159,Zahínos,345,38.33073479,-6.95354061,2864,700604,False,zahinos-id06159
06160,11,6,160,Zalamea de la Serena,486,38.65012696,-5.66080875,3797,700603,False,zalamea-de-la-serena-id06160
06161,11,6,161,Zarza-Capilla,606,38.80686554,-5.15511609,363,700603,False,zarza-capilla-id06161
06162,11,6,162,"Zarza, La",297,38.8179844,-6.21684207,3591,700601,False,zarza-la-id06162
06901,11,6,901,Valdelacalzada,184,38.88958069,-6.70034284,2752,700601,False,valdelacalzada-id06901
06902,11,6,902,Pueblonuevo del Guadiana,181,38.92283324,-6.75618834,2056,700601,False,pueblonuevo-del-guadiana-id06902
06903,11,6,903,Guadiana del Caudillo,190,38.92947238,-6.69011476,2519,700601,False,guadiana-del-caudillo-id06903
07001,4,7,1,Alaró,224,39.70531287,2.78929422,5227,645403,False,alaro-id07001
07002,4,7,2,Alaior,129,39.93484767,4.13954133,9162,645501,False,alaior-id07002
07003,4,7,3,Alcúdia,15,39.85133232,3.12052167,19768,645402,True,alcudia-id07003
07004,4,7,4,Algaida,194,39.55960002,2.89590963,5354,645403,False,algaida-id07004
07005,4,7,5,Andratx,99,39.57698567,2.42166738,10806,645404,False,andratx-id07005
07006,4,7,6,Artà,143,39.6959618,3.35420478,7382,645402,False,arta-id07006
07007,4,7,7,Banyalbufar,109,39.68725234,2.51404544,553,645401,False,banyalbufar-id07007
07008,4,7,8,Binissalem,136,39.68898957,2.84218549,7936,645403,False,binissalem-id07008
07009,4,7,9,Búger,102,39.7590053,2.9855715,1030,645402,False,buger-id07009
07010,4,7,10,Bunyola,214,39.69606038,2.69938561,6662,645401,False,bunyola-id07010
07011,4,7,11,Calvià,109,39.5658892,2.50248281,50363,645404,True,calvia-id07011
07012,4,7,12,Campanet,130,39.77486818,2.96607993,2554,645402,False,campanet-id07012
07013,4,7,13,Campos,22,39.43054249,3.01814674,9765,645404,False,campos-id07013
07014,4,7,14,Capdepera,98,39.70272083,3.43335832,11385,645402,False,capdepera-id07014
07015,4,7,15,Ciutadella de Menorca,19,40.00191941,3.83794037,29282,645501,True,ciutadella-de-menorca-id07015
07016,4,7,16,Consell,152,39.66870194,2.8139355,3859,645403,False,consell-id07016
07017,4,7,17,Costitx,138,39.65741566,2.95035295,1183,645403,False,costitx-id07017
07018,4,7,18,Deià,201,39.74902676,2.64671196,768,645401,False,deia-id07018
07019,4,7,19,Escorca,481,39.82311033,2.88475312,241,645401,False,escorca-lluc-id07019
07020,4,7,20,Esporles,178,39.66685542,2.57938287,4940,645401,False,esporles-id07020
07021,4,7,21,Estellencs,140,39.65367759,2.48208552,344,645401,False,estellencs-id07021
07022,4,7,22,Felanitx,110,39.46872493,3.14917515,17291,645405,True,felanitx-id07022
07023,4,7,23,Ferreries,138,39.98257652,4.00760611,4630,645501,False,ferreries-id07023
07024,4,7,24,Formentera,40,38.7053186,1.4281037,11545,645301,False,formentera-san-francisco-javier-id07024
07025,4,7,25,Fornalutx,143,39.78221695,2.74130906,704,645401,False,fornalutx-id07025
07026,4,7,26,Eivissa,81,38.90666947,1.43622903,49693,645301,True,eivissa-id07026
07027,4,7,27,Inca,118,39.72118528,2.91196747,30625,645403,True,inca-id07027
07028,4,7,28,Lloret de Vistalegre,168,39.61804799,2.97531312,1251,645403,False,lloret-de-vistalegre-id07028
07029,4,7,29,Lloseta,159,39.71897118,2.86747096,5686,645403,False,lloseta-id07029
07030,4,7,30,Llubí,71,39.70079115,3.00508565,2216,645403,False,llubi-id07030
07031,4,7,31,Llucmajor,141,39.49075501,2.89030165,34602,645404,True,llucmajor-id07031
07032,4,7,32,Maó-Mahón,35,39.88752218,4.26546555,28460,645501,True,mao-mahon-id07032
07033,4,7,33,Manacor,90,39.56889081,3.20952136,40264,645405,True,manacor-id07033
07034,4,7,34,Mancor de la Vall,214,39.75000601,2.87100752,1309,645403,False,mancor-de-la-vall-id07034
07035,4,7,35,Maria de la Salut,107,39.66430372,3.07329391,2114,645403,False,maria-de-la-salut-id07035
07036,4,7,36,Marratxí,127,39.64163014,2.75307947,35521,645404,True,marratxi-cabaneta-la-id07036
07037,4,7,37,"Mercadal, Es",58,39.98840625,4.09305293,5176,645501,False,mercadal-es-id07037
07038,4,7,38,Montuïri,163,39.56754682,2.98125608,2888,645403,False,montuiri-id07038
07039,4,7,39,Muro,72,39.73685393,3.05731321,6808,645402,False,muro-id07039
07040,4,7,40,Palma de Mallorca,24,39.57114699,2.65181698,399093,645404,True,palma-id07040
07041,4,7,41,Petra,109,39.61130166,3.11229719,2812,645403,False,petra-id07041
07042,4,7,42,Pollença,47,39.87749578,3.01575353,16088,645402,True,pollenca-id07042
07043,4,7,43,Porreres,127,39.5149701,3.02406691,5369,645403,False,porreres-id07043
07044,4,7,44,"Pobla, Sa",23,39.77003222,3.02339911,12709,645402,True,pobla-sa-id07044
07045,4,7,45,Puigpunyent,217,39.62087168,2.5266031,2016,645401,False,puigpunyent-id07045
07046,4,7,46,Sant Antoni de Portmany,9,38.98087489,1.30418187,23359,645301,True,sant-antoni-de-portmany-id07046
07047,4,7,47,Sencelles,116,39.64769631,2.89777048,3073,645403,False,sencelles-id07047
07048,4,7,48,Sant Josep de sa Talaia,200,38.92188093,1.29287595,25362,645301,True,sant-josep-de-sa-talaia-id07048
07049,4,7,49,Sant Joan,142,39.59697822,3.03858511,2030,645403,False,sant-joan-id07049
07050,4,7,50,Sant Joan de Labritja,197,39.07784991,1.51409527,5668,645301,False,sant-joan-de-labritja-id07050
07051,4,7,51,Sant Llorenç des Cardassar,77,39.61076123,3.28575127,8320,645405,False,sant-llorenc-des-cardassar-id07051
07052,4,7,52,Sant Lluís,58,39.84899059,4.25863295,7472,645501,False,sant-lluis-id07052
07053,4,7,53,Santa Eugènia,129,39.62413133,2.83985105,1652,645403,False,santa-eugenia-id07053
07054,4,7,54,Santa Eulària des Riu,53,38.98383613,1.52911819,36189,645301,True,santa-eularia-des-riu-id07054
07055,4,7,55,Santa Margalida,92,39.70308972,3.10127212,11680,645402,True,santa-margalida-id07055
07056,4,7,56,Santa María del Camí,129,39.64709883,2.77975044,6591,645403,False,santa-maria-del-cami-id07056
07057,4,7,57,Santanyí,59,39.35450328,3.12944446,11636,645405,True,santanyi-id07057
07058,4,7,58,Selva,200,39.7553522,2.90186218,3858,645403,False,selva-id07058
07059,4,7,59,"Salines, Ses",42,39.33869409,3.05568485,5050,645404,False,salines-ses-id07059
07060,4,7,60,Sineu,142,39.64286417,3.01060535,3681,645403,False,sineu-id07060
07061,4,7,61,Sóller,37,39.7644573,2.71413767,13842,645401,True,soller-id07061
07062,4,7,62,Son Servera,80,39.62043877,3.36006337,11576,645405,True,son-servera-id07062
07063,4,7,63,Valldemossa,409,39.70926921,2.62218352,2025,645401,False,valldemossa-id07063
07064,4,7,64,"Castell, Es",16,39.87832753,4.28966629,7661,645501,False,castell-es-id07064
07065,4,7,65,Vilafranca de Bonany,96,39.56790262,3.08744135,2910,645403,False,vilafranca-de-bonany-id07065
07901,4,7,901,Ariany,115,39.65016306,3.11196402,903,645403,False,ariany-id07901
07902,4,7,902,"Migjorn Gran, Es",107,39.94614691,4.051704,1470,645501,False,migjorn-gran-es-id07902
08001,9,8,1,Abrera,106,41.51794352,1.90221018,12125,690803,False,abrera-id08001
08002,9,8,2,Aguilar de Segarra,533,41.74831278,1.62936702,251,690802,False,aguilar-de-segarra-id08002
08003,9,8,3,Alella,92,41.49387798,2.29439029,9651,690804,False,alella-id08003
08004,9,8,4,Alpens,857,42.11918767,2.10093622,300,690801,False,alpens-id08004
08005,9,8,5,"Ametlla del Vallès, L'",292,41.67042597,2.2625552,8283,690803,False,ametlla-del-valles-l-id08005
08006,9,8,6,Arenys de Mar,13,41.58055665,2.54953867,15307,690804,False,arenys-de-mar-id08006
08007,9,8,7,Arenys de Munt,121,41.60908914,2.53985948,8654,690804,False,arenys-de-munt-id08007
08008,9,8,8,Argençola,741,41.59766695,1.44349093,212,690803,False,argencola-id08008
08009,9,8,9,Argentona,87,41.55414605,2.40073304,11963,690804,False,argentona-id08009
08010,9,8,10,Artés,339,41.799633,1.95102866,5661,690802,False,artes-id08010
08011,9,8,11,Avià,677,42.07523966,1.82510758,2258,690802,False,avia-id08011
08012,9,8,12,Avinyó,364,41.86339433,1.97121783,2275,690802,False,avinyo-id08012
08013,9,8,13,Avinyonet del Penedès,276,41.36153844,1.77692952,1675,690803,False,avinyonet-del-penedes-avinyo-nou-id08013
08014,9,8,14,Aiguafreda,405,41.76840775,2.25066785,2498,690802,False,aiguafreda-id08014
08015,9,8,15,Badalona,23,41.45262481,2.24625368,217210,690804,True,badalona-id08015
08016,9,8,16,Bagà,787,42.25270053,1.86189664,2225,690801,False,baga-id08016
08017,9,8,17,Balenyà,545,41.81419402,2.23355625,3724,690802,False,balenya-hostalets-de-balenya-els-id08017
08018,9,8,18,Balsareny,329,41.86322949,1.87760063,3343,690802,False,balsareny-id08018
08019,9,8,19,Barcelona,13,41.38424664,2.17634927,1602386,690804,True,barcelona-id08019
08020,9,8,20,Begues,369,41.33070635,1.92397654,6620,690804,False,begues-id08020
08021,9,8,21,Bellprat,645,41.51706258,1.43413553,78,690803,False,bellprat-id08021
08022,9,8,22,Berga,722,42.10328874,1.8440247,16456,690802,False,berga-id08022
08023,9,8,23,Bigues i Riells,309,41.67774086,2.22171953,8854,690803,False,bigues-i-riells-id08023
08024,9,8,24,Borredà,853,42.13544837,1.99399235,540,690801,False,borreda-id08024
08025,9,8,25,"Bruc, El",475,41.57903397,1.7826575,1991,690803,False,bruc-el-id08025
08026,9,8,26,"Brull, El",838,41.8171574,2.30594351,263,690802,False,brull-el-id08026
08027,9,8,27,"Cabanyes, Les",251,41.37112957,1.68926987,961,690803,False,cabanyes-les-id08027
08028,9,8,28,Cabrera d'Anoia,301,41.47829181,1.70296958,1363,690803,False,cabrera-d-anoia-canaletes-id08028
08029,9,8,29,Cabrera de Mar,104,41.52804539,2.39258336,4525,690804,False,cabrera-de-mar-id08029
08030,9,8,30,Cabrils,150,41.52584282,2.36829644,7197,690804,False,cabrils-id08030
08031,9,8,31,Calaf,688,41.73400265,1.5114597,3475,690802,False,calaf-id08031
08032,9,8,32,Caldes d'Estrac,7,41.56984859,2.52733996,2738,690804,False,caldes-d-estrac-id08032
08033,9,8,33,Caldes de Montbui,205,41.63121718,2.16488078,17156,690803,False,caldes-de-montbui-id08033
08034,9,8,34,Calders,553,41.78919345,1.99225057,949,690802,False,calders-id08034
08035,9,8,35,Calella,5,41.61378676,2.65807435,18307,690804,False,calella-id08035
08036,9,8,36,Calonge de Segarra,611,41.76399656,1.4819908,202,690802,False,calonge-de-segarra-dusfort-id08036
08037,9,8,37,Calldetenes,489,41.9260391,2.28367149,2429,690802,False,calldetenes-id08037
08038,9,8,38,Callús,261,41.78274113,1.78419181,1985,690802,False,callus-id08038
08039,9,8,39,Campins,313,41.72478625,2.46316202,521,690803,False,campins-id08039
08040,9,8,40,Canet de Mar,17,41.58963398,2.58263796,14123,690804,False,canet-de-mar-id08040
08041,9,8,41,Canovelles,181,41.62465146,2.27806994,15954,690803,False,canovelles-id08041
08042,9,8,42,Cànoves i Samalús,349,41.69378551,2.35467704,2863,690803,False,canoves-i-samalus-id08042
08043,9,8,43,Canyelles,141,41.28683284,1.72239127,4345,690804,False,canyelles-id08043
08044,9,8,44,Capellades,317,41.53137121,1.6863149,5284,690803,False,capellades-id08044
08045,9,8,45,Capolat,1279,42.07824313,1.75302449,88,690801,False,capolat-id08045
08046,9,8,46,Cardedeu,195,41.63857345,2.35643981,17698,690803,False,cardedeu-id08046
08047,9,8,47,Cardona,503,41.9137431,1.6814463,4921,690802,False,cardona-id08047
08048,9,8,48,Carme,331,41.5312096,1.62095444,817,690803,False,carme-id08048
08049,9,8,49,Casserres,618,42.01371433,1.84259328,1569,690802,False,casserres-id08049
08050,9,8,50,Castellar del Riu,1230,42.11987465,1.76009559,171,690801,False,castellar-del-riu-llinars-id08050
08051,9,8,51,Castellar del Vallès,332,41.61807776,2.08580516,23440,690803,False,castellar-del-valles-id08051
08052,9,8,52,Castellar de n'Hug,1397,42.2828734,2.01715654,159,690801,False,castellar-de-n-hug-id08052
08053,9,8,53,Castellbell i el Vilar,144,41.63929401,1.8557986,3624,690802,False,castellbell-i-el-vilar-borras-el-id08053
08054,9,8,54,Castellbisbal,152,41.47486094,1.98046176,12434,690803,False,castellbisbal-id08054
08055,9,8,55,Castellcir,772,41.75917575,2.14845292,718,690802,False,castellcir-id08055
08056,9,8,56,Castelldefels,3,41.27877343,1.97680641,63255,690804,True,castelldefels-id08056
08057,9,8,57,Castell de l'Areny,954,42.17342443,1.94534683,75,690801,False,castell-de-l-areny-id08057
08058,9,8,58,Castellet i la Gornal,105,41.26318387,1.63352368,2237,690804,False,castellet-i-la-gornal-gornal-la-id08058
08059,9,8,59,Castellfollit del Boix,678,41.66958185,1.70126254,428,690802,False,castellfollit-del-boix-id08059
08060,9,8,60,Castellfollit de Riubregós,480,41.77617894,1.43806257,177,690802,False,castellfollit-de-riubregos-id08060
08061,9,8,61,Castellgalí,268,41.67613293,1.8396602,2022,690802,False,castellgali-id08061
08062,9,8,62,Castellnou de Bages,484,41.83408104,1.83745179,1241,690802,False,castellnou-de-bages-id08062
08063,9,8,63,Castellolí,393,41.59858126,1.70053944,571,690803,False,castelloli-id08063
08064,9,8,64,Castellterçol,726,41.75134192,2.12121675,2400,690802,False,castelltercol-id08064
08065,9,8,65,Castellví de la Marca,192,41.32614749,1.61932606,1589,690803,False,castellvi-de-la-marca-munia-la-id08065
08066,9,8,66,Castellví de Rosanes,183,41.44913218,1.89891728,1760,690803,False,castellvi-de-rosanes-id08066
08067,9,8,67,Centelles,519,41.79843592,2.21940816,7333,690802,False,centelles-id08067
08068,9,8,68,Cervelló,124,41.39575781,1.95331219,8811,690804,False,cervello-id08068
08069,9,8,69,Collbató,386,41.57016377,1.82790997,4427,690803,False,collbato-id08069
08070,9,8,70,Collsuspina,902,41.82557802,2.17489732,338,690802,False,collsuspina-id08070
08071,9,8,71,Copons,430,41.63650072,1.51885626,323,690803,False,copons-id08071
08072,9,8,72,Corbera de Llobregat,242,41.41481133,1.92914739,14237,690804,False,corbera-de-llobregat-id08072
08073,9,8,73,Cornellà de Llobregat,27,41.35546934,2.07013202,86234,690804,True,cornella-de-llobregat-id08073
08074,9,8,74,Cubelles,16,41.20872584,1.67282672,14481,690804,False,cubelles-id08074
08075,9,8,75,Dosrius,148,41.59451952,2.4066352,5137,690804,False,dosrius-id08075
08076,9,8,76,Esparreguera,186,41.54123747,1.86885891,21685,690803,False,esparreguera-id08076
08077,9,8,77,Esplugues de Llobregat,81,41.37211895,2.0840895,46133,690804,False,esplugues-de-llobregat-id08077
08078,9,8,78,"Espunyola, L'",753,42.05372416,1.7837037,259,690801,False,espunyola-l-id08078
08079,9,8,79,"Estany, L'",872,41.86923785,2.11255619,407,690802,False,estany-l-id08079
08080,9,8,80,Fígols,1175,42.1816231,1.83665289,43,690801,False,figols-id08080
08081,9,8,81,Fogars de Montclús,623,41.73523467,2.45368398,482,690803,False,fogars-de-montclus-mosqueroles-id08081
08082,9,8,82,Fogars de la Selva,44,41.73903942,2.67967453,1512,690803,False,fogars-de-la-selva-id08082
08083,9,8,83,Folgueroles,553,41.9390191,2.31949881,2259,690802,False,folgueroles-id08083
08084,9,8,84,Fonollosa,526,41.76332667,1.66917921,1429,690802,False,fonollosa-id08084
08085,9,8,85,Font-rubí,660,41.43708059,1.58869173,1353,690803,False,font-rubi-guardiola-de-font-rubi-id08085
08086,9,8,86,"Franqueses del Vallès, Les",181,41.61778924,2.2971592,19170,690803,False,franqueses-del-valles-les-corro-d-avall-id08086
08087,9,8,87,Gallifa,506,41.69329008,2.11156373,202,690803,False,gallifa-id08087
08088,9,8,88,"Garriga, La",250,41.68581739,2.28657941,15762,690803,False,garriga-la-id08088
08089,9,8,89,Gavà,10,41.30331666,2.00329904,46326,690804,True,gava-id08089
08090,9,8,90,Gaià,480,41.91662143,1.92570947,163,690802,False,gaia-id08090
08091,9,8,91,Gelida,162,41.44053414,1.86136831,7194,690803,False,gelida-id08091
08092,9,8,92,Gironella,470,42.03421419,1.88362316,4987,690802,False,gironella-id08092
08093,9,8,93,Gisclareny,1303,42.25314687,1.78767211,25,690801,False,gisclareny-id08093
08094,9,8,94,"Granada, La",260,41.37737297,1.71977016,2073,690803,False,granada-la-id08094
08095,9,8,95,Granera,766,41.72551464,2.05700417,80,690802,False,granera-id08095
08096,9,8,96,Granollers,145,41.60793085,2.286177,59930,690803,True,granollers-id08096
08097,9,8,97,Gualba,177,41.73168197,2.50242393,1429,690803,False,gualba-id08097
08098,9,8,98,Sant Salvador de Guardiola,330,41.68029526,1.76706597,3130,690802,False,sant-salvador-de-guardiola-id08098
08099,9,8,99,Guardiola de Berguedà,725,42.23117944,1.87777073,937,690801,False,guardiola-de-bergueda-id08099
08100,9,8,100,Gurb,562,41.95552384,2.22222604,2545,690802,False,gurb-id08100
08101,9,8,101,"Hospitalet de Llobregat, L'",11,41.35977051,2.10138287,253518,690804,True,hospitalet-de-llobregat-l-id08101
08102,9,8,102,Igualada,313,41.57895096,1.61829588,38751,690803,False,igualada-id08102
08103,9,8,103,Jorba,402,41.60164387,1.54564515,838,690803,False,jorba-id08103
08104,9,8,104,"Llacuna, La",610,41.47272968,1.53455398,906,690803,False,llacuna-la-id08104
08105,9,8,105,"Llagosta, La",53,41.51398767,2.19120729,13430,690803,False,llagosta-la-id08105
08106,9,8,106,Llinars del Vallès,189,41.63994246,2.39801856,9536,690803,False,llinars-del-valles-id08106
08107,9,8,107,Lliçà d'Amunt,142,41.61098359,2.23831648,14696,690803,False,llica-d-amunt-id08107
08108,9,8,108,Lliçà de Vall,120,41.59155415,2.24224029,6354,690803,False,llica-de-vall-id08108
08109,9,8,109,Lluçà,746,42.05096646,2.03574944,257,690802,False,lluca-santa-eulalia-de-puig-oriol-id08109
08110,9,8,110,Malgrat de Mar,2,41.64634039,2.74216721,18417,690804,False,malgrat-de-mar-id08110
08111,9,8,111,Malla,583,41.8873102,2.2347449,266,690802,False,malla-id08111
08112,9,8,112,Manlleu,460,42.00112671,2.28502818,20279,690802,False,manlleu-id08112
08113,9,8,113,Manresa,237,41.72199594,1.82721026,75297,690802,True,manresa-id08113
08114,9,8,114,Martorell,79,41.47800328,1.91913747,27895,690803,False,martorell-id08114
08115,9,8,115,Martorelles,104,41.52811993,2.23596848,4783,690803,False,martorelles-id08115
08116,9,8,116,"Masies de Roda, Les",461,41.99294791,2.29364343,737,690802,False,masies-de-roda-les-id08116
08117,9,8,117,"Masies de Voltregà, Les",513,42.02587851,2.23357001,3186,690802,False,masies-de-voltrega-les-id08117
08118,9,8,118,"Masnou, El",26,41.47943758,2.31648978,22742,690804,False,masnou-el-id08118
08119,9,8,119,Masquefa,259,41.50263521,1.81108415,8406,690803,False,masquefa-id08119
08120,9,8,120,Matadepera,425,41.59921764,2.027681,8841,690803,False,matadepera-id08120
08121,9,8,121,Mataró,26,41.5408469,2.44658062,124280,690804,True,mataro-id08121
08122,9,8,122,Mediona,427,41.47602976,1.60956101,2311,690803,False,mediona-sant-joan-de-mediona-id08122
08123,9,8,123,Molins de Rei,36,41.4132111,2.01736908,25152,690804,False,molins-de-rei-id08123
08124,9,8,124,Mollet del Vallès,64,41.53924556,2.21349119,51719,690803,True,mollet-del-valles-id08124
08125,9,8,125,Montcada i Reixac,38,41.48680767,2.18796375,34394,690803,False,montcada-i-reixac-id08125
08126,9,8,126,Montgat,34,41.46808596,2.27924608,11315,690804,False,montgat-id08126
08127,9,8,127,Monistrol de Montserrat,159,41.61077964,1.84426526,2945,690802,False,monistrol-de-montserrat-id08127
08128,9,8,128,Monistrol de Calders,442,41.75953746,2.01344124,695,690802,False,monistrol-de-calders-id08128
08129,9,8,129,Muntanyola,811,41.87823488,2.17787241,595,690802,False,muntanyola-id08129
08130,9,8,130,Montclar,726,42.01860035,1.76525378,117,690802,False,montclar-id08130
08131,9,8,131,Montesquiu,574,42.10946646,2.20940132,895,690801,False,montesquiu-id08131
08132,9,8,132,Montmajor,830,42.00721774,1.73396804,476,690801,False,montmajor-id08132
08133,9,8,133,Montmaneu,708,41.62552907,1.41541536,164,690803,False,montmaneu-id08133
08134,9,8,134,Figaró-Montmany,537,41.71255278,2.24743333,1096,690803,False,figaro-montmany-id08134
08135,9,8,135,Montmeló,79,41.54994979,2.24905716,8863,690803,False,montmelo-id08135
08136,9,8,136,Montornès del Vallès,90,41.54301105,2.26531071,16217,690803,False,montornes-del-valles-id08136
08137,9,8,137,Montseny,530,41.75971074,2.39517088,332,690803,False,montseny-id08137
08138,9,8,138,Moià,711,41.81146936,2.09879806,5760,690802,False,moia-id08138
08139,9,8,139,Mura,451,41.6987531,1.97570776,211,690802,False,mura-id08139
08140,9,8,140,Navarcles,261,41.75211432,1.90480876,6003,690802,False,navarcles-id08140
08141,9,8,141,Navàs,370,41.9008495,1.87846147,6117,690802,False,navas-id08141
08142,9,8,142,"Nou de Berguedà, La",872,42.16597575,1.88524252,150,690801,False,nou-de-bergueda-la-id08142
08143,9,8,143,Òdena,423,41.60541091,1.63846821,3624,690803,False,odena-id08143
08144,9,8,144,Olvan,558,42.05763181,1.90522095,876,690802,False,olvan-id08144
08145,9,8,145,Olèrdola,189,41.31989266,1.72101622,3579,690804,False,olerdola-sant-miquel-d-olerdola-id08145
08146,9,8,146,Olesa de Bonesvalls,276,41.35335407,1.84885488,1735,690803,False,olesa-de-bonesvalls-id08146
08147,9,8,147,Olesa de Montserrat,125,41.54584016,1.89387309,23543,690803,False,olesa-de-montserrat-id08147
08148,9,8,148,Olivella,209,41.31036088,1.81063174,3609,690804,False,olivella-id08148
08149,9,8,149,Olost,568,41.98591725,2.09617479,1186,690802,False,olost-id08149
08150,9,8,150,Orís,709,42.0598174,2.22050814,303,690802,False,oris-can-branques-id08150
08151,9,8,151,Oristà,467,41.93204914,2.06026698,557,690802,False,orista-id08151
08152,9,8,152,Orpí,469,41.51914969,1.57520172,131,690803,False,orpi-can-bou-id08152
08153,9,8,153,Òrrius,255,41.55518612,2.35494034,690,690804,False,orrius-id08153
08154,9,8,154,Pacs del Penedès,204,41.36067132,1.66960999,892,690803,False,pacs-del-penedes-id08154
08155,9,8,155,Palafolls,19,41.66727049,2.74918364,9065,690804,False,palafolls-id08155
08156,9,8,156,Palau-solità i Plegamans,147,41.58739422,2.18068232,14454,690803,False,palau-solita-i-plegamans-id08156
08157,9,8,157,Pallejà,44,41.42412484,1.99610661,11253,690804,False,palleja-id08157
08158,9,8,158,"Papiol, El",136,41.43887689,2.01042293,4023,690804,False,papiol-el-id08158
08159,9,8,159,Parets del Vallès,92,41.57329035,2.23447723,18733,690803,False,parets-del-valles-id08159
08160,9,8,160,Perafita,753,42.0421094,2.1065794,407,690802,False,perafita-id08160
08161,9,8,161,Piera,300,41.5207995,1.74711183,15000,690803,False,piera-id08161
08162,9,8,162,"Hostalets de Pierola, Els",294,41.55191918,1.78743519,2942,690803,False,hostalets-de-pierola-els-id08162
08163,9,8,163,Pineda de Mar,10,41.6287647,2.68966552,25948,690804,False,pineda-de-mar-id08163
08164,9,8,164,"Pla del Penedès, El",217,41.41788382,1.71293159,1223,690803,False,pla-del-penedes-el-id08164
08165,9,8,165,"Pobla de Claramunt, La",265,41.55834535,1.67357315,2186,690803,False,pobla-de-claramunt-la-id08165
08166,9,8,166,"Pobla de Lillet, La",843,42.24430778,1.97474924,1155,690801,False,pobla-de-lillet-la-id08166
08167,9,8,167,Polinyà,125,41.5565656,2.15742381,8238,690803,False,polinya-id08167
08168,9,8,168,Pontons,574,41.41610117,1.51689813,477,690803,False,pontons-id08168
08169,9,8,169,"Prat de Llobregat, El",5,41.33095848,2.0926236,62866,690804,True,prat-de-llobregat-el-id08169
08170,9,8,170,"Prats de Rei, Els",606,41.70526754,1.54209814,537,690802,False,prats-de-rei-els-id08170
08171,9,8,171,Prats de Lluçanès,708,42.00936587,2.02937379,2624,690802,False,prats-de-llucanes-id08171
08172,9,8,172,Premià de Mar,8,41.48960471,2.35662125,28163,690804,False,premia-de-mar-id08172
08174,9,8,174,Puigdàlber,237,41.40553891,1.70048194,532,690803,False,puigdalber-id08174
08175,9,8,175,Puig-reig,455,41.97086915,1.88151932,4207,690802,False,puig-reig-id08175
08176,9,8,176,Pujalt,766,41.71757984,1.42076522,198,690802,False,pujalt-id08176
08177,9,8,177,"Quar, La",1059,42.10582802,1.97382762,57,690802,False,quar-la-id08177
08178,9,8,178,Rajadell,364,41.72748048,1.70630113,528,690802,False,rajadell-id08178
08179,9,8,179,Rellinars,354,41.63628777,1.9107575,726,690802,False,rellinars-id08179
08180,9,8,180,Ripollet,77,41.49708333,2.15517594,37233,690803,False,ripollet-id08180
08181,9,8,181,"Roca del Vallès, La",121,41.58658677,2.32542696,10518,690803,False,roca-del-valles-la-id08181
08182,9,8,182,"Pont de Vilomara i Rocafort, El",204,41.69986456,1.87116652,3780,690802,False,pont-de-vilomara-i-rocafort-el-pont-de-vilomara-el-id08182
08183,9,8,183,Roda de Ter,453,41.98389922,2.31045051,6124,690802,False,roda-de-ter-id08183
08184,9,8,184,Rubí,123,41.49173695,2.03003252,74353,690803,True,rubi-id08184
08185,9,8,185,Rubió,699,41.64443902,1.57832874,228,690803,False,rubio-id08185
08187,9,8,187,Sabadell,191,41.54695899,2.10778994,207444,690803,True,sabadell-id08187
08188,9,8,188,Sagàs,738,42.05223484,1.96322301,149,690802,False,sagas-id08188
08189,9,8,189,Sant Pere Sallavinera,583,41.73635219,1.57460777,162,690802,False,sant-pere-sallavinera-id08189
08190,9,8,190,Saldes,1214,42.22931792,1.73609251,283,690801,False,saldes-id08190
08191,9,8,191,Sallent,278,41.8236577,1.89657043,6780,690802,False,sallent-id08191
08192,9,8,192,Santpedor,323,41.78453445,1.83917708,7384,690802,False,santpedor-id08192
08193,9,8,193,Sant Iscle de Vallalta,129,41.62356007,2.56928753,1304,690804,False,sant-iscle-de-vallalta-id08193
08194,9,8,194,Sant Adrià de Besòs,15,41.43402794,2.21447569,35386,690804,False,sant-adria-de-besos-id08194
08195,9,8,195,Sant Agustí de Lluçanès,814,42.08481721,2.12753816,91,690802,False,sant-agusti-de-llucanes-id08195
08196,9,8,196,Sant Andreu de la Barca,43,41.44675659,1.97523925,27268,690803,False,sant-andreu-de-la-barca-id08196
08197,9,8,197,Sant Andreu de Llavaneres,113,41.57427707,2.48247164,10590,690804,False,sant-andreu-de-llavaneres-id08197
08198,9,8,198,Sant Antoni de Vilamajor,253,41.67229651,2.39990419,5708,690803,False,sant-antoni-de-vilamajor-id08198
08199,9,8,199,Sant Bartomeu del Grau,869,41.98389071,2.17268926,875,690802,False,sant-bartomeu-del-grau-id08199
08200,9,8,200,Sant Boi de Llobregat,32,41.3425371,2.04182116,83107,690804,True,sant-boi-de-llobregat-id08200
08201,9,8,201,Sant Boi de Lluçanès,808,42.05745693,2.15178208,556,690802,False,sant-boi-de-llucanes-id08201
08202,9,8,202,Sant Celoni,158,41.6897174,2.4898404,17251,690803,False,sant-celoni-id08202
08203,9,8,203,Sant Cebrià de Vallalta,73,41.62035299,2.60179064,3328,690804,False,sant-cebria-de-vallalta-id08203
08204,9,8,204,Sant Climent de Llobregat,83,41.33636238,1.99575666,3938,690804,False,sant-climent-de-llobregat-id08204
08205,9,8,205,Sant Cugat del Vallès,123,41.47345403,2.08526472,87118,690803,True,sant-cugat-del-valles-id08205
08206,9,8,206,Sant Cugat Sesgarrigues,266,41.36446206,1.75308213,972,690803,False,sant-cugat-sesgarrigues-id08206
